2024-02-06 03:30:49.236479: test_boat.gps.time='2024-02-06T03:30:49.000Z', self.flap.relative_angle = 124, self.wingsail.absolute_angle = 359.736328125, self.app_wind_magnitude = 0.0, self.app_wind_angle = 135.48388671875, self.gps.lat = 29.721016667, self.gps.lon = -95.401138333, self.gps.speed = 0.185, self.pitch_angle = 0.0, self.roll_angle = 0.0, self.yaw_angle = 0.0
2024-02-06 03:30:49.335388: test_boat.gps.time='2024-02-06T03:30:49.000Z', self.flap.relative_angle = 124, self.wingsail.absolute_angle = 359.12109375, self.app_wind_magnitude = 0.0, self.app_wind_angle = 136.5395965576172, self.gps.lat = 29.721016667, self.gps.lon = -95.401138333, self.gps.speed = 0.185, self.pitch_angle = 0.0, self.roll_angle = 0.0, self.yaw_angle = 0.0
2024-02-06 03:30:49.433800: test_boat.gps.time='2024-02-06T03:30:49.000Z', self.flap.relative_angle = 124, self.wingsail.absolute_angle = 1.494140625, self.app_wind_magnitude = 0.0, self.app_wind_angle = 136.18768310546875, self.gps.lat = 29.721016667, self.gps.lon = -95.401138333, self.gps.speed = 0.185, self.pitch_angle = 0.0, self.roll_angle = 0.0, self.yaw_angle = 0.0
2024-02-06 03:30:49.531972: test_boat.gps.time='2024-02-06T03:30:49.000Z', self.flap.relative_angle = 124, self.wingsail.absolute_angle = 1.669921875, self.app_wind_magnitude = 0.0, self.app_wind_angle = 135.83578491210938, self.gps.lat = 29.721016667, self.gps.lon = -95.401138333, self.gps.speed = 0.185, self.pitch_angle = 0.0, self.roll_angle = 0.0, self.yaw_angle = 0.0
2024-02-06 03:30:49.629662: test_boat.gps.time='2024-02-06T03:30:49.000Z', self.flap.relative_angle = 124, self.wingsail.absolute_angle = 2.4609375, self.app_wind_magnitude = 0.0, self.app_wind_angle = 136.89151000976562, self.gps.lat = 29.721016667, self.gps.lon = -95.401138333, self.gps.speed = 0.185, self.pitch_angle = 0.0, self.roll_angle = 0.0, self.yaw_angle = 0.0
2024-02-06 03:30:49.727918: test_boat.gps.time='2024-02-06T03:30:49.000Z', self.flap.relative_angle = 124, self.wingsail.absolute_angle = 1.7578125, self.app_wind_magnitude = 0.0, self.app_wind_angle = 136.5395965576172, self.gps.lat = 29.721016667, self.gps.lon = -95.401138333, self.gps.speed = 0.185, self.pitch_angle = 0.0, self.roll_angle = 0.0, self.yaw_angle = 0.0
2024-02-06 03:30:49.826413: test_boat.gps.time='2024-02-06T03:30:49.000Z', self.flap.relative_angle = 124, self.wingsail.absolute_angle = 0.87890625, self.app_wind_magnitude = 0.0, self.app_wind_angle = 136.5395965576172, self.gps.lat = 29.721016667, self.gps.lon = -95.401138333, self.gps.speed = 0.185, self.pitch_angle = 0.0, self.roll_angle = 0.0, self.yaw_angle = 0.0
2024-02-06 03:30:49.925883: test_boat.gps.time='2024-02-06T03:30:49.000Z', self.flap.relative_angle = 124, self.wingsail.absolute_angle = 359.296875, self.app_wind_magnitude = 0.0, self.app_wind_angle = 139.70675659179688, self.gps.lat = 29.721016667, self.gps.lon = -95.401138333, self.gps.speed = 0.185, self.pitch_angle = 0.0, self.roll_angle = 0.0, self.yaw_angle = 0.0
2024-02-06 03:30:50.031919: test_boat.gps.time='2024-02-06T03:30:49.000Z', self.flap.relative_angle = 124, self.wingsail.absolute_angle = 1.318359375, self.app_wind_magnitude = 0.0, self.app_wind_angle = 136.18768310546875, self.gps.lat = 29.721016667, self.gps.lon = -95.401138333, self.gps.speed = 0.185, self.pitch_angle = 0.0, self.roll_angle = 0.0, self.yaw_angle = 0.0
2024-02-06 03:30:50.139307: test_boat.gps.time='2024-02-06T03:30:49.000Z', self.flap.relative_angle = 124, self.wingsail.absolute_angle = 3.251953125, self.app_wind_magnitude = 0.0, self.app_wind_angle = 136.89151000976562, self.gps.lat = 29.721016667, self.gps.lon = -95.401138333, self.gps.speed = 0.185, self.pitch_angle = 0.0, self.roll_angle = 0.0, self.yaw_angle = 0.0
2024-02-06 03:30:50.248661: test_boat.gps.time='2024-02-06T03:30:49.000Z', self.flap.relative_angle = 124, self.wingsail.absolute_angle = 1.40625, self.app_wind_magnitude = 0.0, self.app_wind_angle = 136.5395965576172, self.gps.lat = 29.721016667, self.gps.lon = -95.401138333, self.gps.speed = 0.216, self.pitch_angle = 0.0, self.roll_angle = 0.0, self.yaw_angle = 0.0
2024-02-06 03:30:50.355443: test_boat.gps.time='2024-02-06T03:30:49.000Z', self.flap.relative_angle = 124, self.wingsail.absolute_angle = 358.9453125, self.app_wind_magnitude = 0.0, self.app_wind_angle = 136.89151000976562, self.gps.lat = 29.721016667, self.gps.lon = -95.401138333, self.gps.speed = 0.216, self.pitch_angle = 0.0, self.roll_angle = 0.0, self.yaw_angle = 0.0
2024-02-06 03:30:50.462358: test_boat.gps.time='2024-02-06T03:30:49.000Z', self.flap.relative_angle = 124, self.wingsail.absolute_angle = 1.142578125, self.app_wind_magnitude = 0.0, self.app_wind_angle = 136.18768310546875, self.gps.lat = 29.721016667, self.gps.lon = -95.401138333, self.gps.speed = 0.216, self.pitch_angle = 0.0, self.roll_angle = 0.0, self.yaw_angle = 0.0
2024-02-06 03:30:50.571680: test_boat.gps.time='2024-02-06T03:30:49.000Z', self.flap.relative_angle = 124, self.wingsail.absolute_angle = 0.3515625, self.app_wind_magnitude = 0.0, self.app_wind_angle = 136.5395965576172, self.gps.lat = 29.721016667, self.gps.lon = -95.401138333, self.gps.speed = 0.216, self.pitch_angle = 0.0, self.roll_angle = 0.0, self.yaw_angle = 0.0
2024-02-06 03:30:50.679170: test_boat.gps.time='2024-02-06T03:30:49.000Z', self.flap.relative_angle = 124, self.wingsail.absolute_angle = 359.6484375, self.app_wind_magnitude = 0.0, self.app_wind_angle = 136.18768310546875, self.gps.lat = 29.721016667, self.gps.lon = -95.401138333, self.gps.speed = 0.216, self.pitch_angle = 0.0, self.roll_angle = 0.0, self.yaw_angle = 0.0
2024-02-06 03:30:50.785804: test_boat.gps.time='2024-02-06T03:30:49.000Z', self.flap.relative_angle = 124, self.wingsail.absolute_angle = 2.8125, self.app_wind_magnitude = 0.0, self.app_wind_angle = 135.13197326660156, self.gps.lat = 29.721016667, self.gps.lon = -95.401138333, self.gps.speed = 0.216, self.pitch_angle = 0.0, self.roll_angle = 0.0, self.yaw_angle = 0.0
2024-02-06 03:30:50.895159: test_boat.gps.time='2024-02-06T03:30:49.000Z', self.flap.relative_angle = 124, self.wingsail.absolute_angle = 359.47265625, self.app_wind_magnitude = 0.0, self.app_wind_angle = 136.5395965576172, self.gps.lat = 29.721016667, self.gps.lon = -95.401138333, self.gps.speed = 0.216, self.pitch_angle = 0.0, self.roll_angle = 0.0, self.yaw_angle = 0.0
2024-02-06 03:30:51.002493: test_boat.gps.time='2024-02-06T03:30:49.000Z', self.flap.relative_angle = 124, self.wingsail.absolute_angle = 1.40625, self.app_wind_magnitude = 0.0, self.app_wind_angle = 135.48388671875, self.gps.lat = 29.721016667, self.gps.lon = -95.401138333, self.gps.speed = 0.216, self.pitch_angle = 0.0, self.roll_angle = 0.0, self.yaw_angle = 0.0
2024-02-06 03:30:51.109661: test_boat.gps.time='2024-02-06T03:30:49.000Z', self.flap.relative_angle = 124, self.wingsail.absolute_angle = 2.900390625, self.app_wind_magnitude = 0.0, self.app_wind_angle = 135.83578491210938, self.gps.lat = 29.721016667, self.gps.lon = -95.401138333, self.gps.speed = 0.216, self.pitch_angle = 0.0, self.roll_angle = 0.0, self.yaw_angle = 0.0
2024-02-06 03:30:51.218795: test_boat.gps.time='2024-02-06T03:30:49.000Z', self.flap.relative_angle = 124, self.wingsail.absolute_angle = 359.384765625, self.app_wind_magnitude = 0.0, self.app_wind_angle = 137.243408203125, self.gps.lat = 29.721016667, self.gps.lon = -95.401138333, self.gps.speed = 0.216, self.pitch_angle = 0.0, self.roll_angle = 0.0, self.yaw_angle = 0.0
2024-02-06 03:30:51.325982: test_boat.gps.time='2024-02-06T03:30:50.000Z', self.flap.relative_angle = 124, self.wingsail.absolute_angle = 2.724609375, self.app_wind_magnitude = 0.0, self.app_wind_angle = 136.18768310546875, self.gps.lat = 29.721015, self.gps.lon = -95.401136667, self.gps.speed = 0.245, self.pitch_angle = 0.0, self.roll_angle = 0.0, self.yaw_angle = 0.0
2024-02-06 03:30:51.432715: test_boat.gps.time='2024-02-06T03:30:50.000Z', self.flap.relative_angle = 124, self.wingsail.absolute_angle = 2.109375, self.app_wind_magnitude = 0.0, self.app_wind_angle = 134.42816162109375, self.gps.lat = 29.721015, self.gps.lon = -95.401136667, self.gps.speed = 0.245, self.pitch_angle = 0.0, self.roll_angle = 0.0, self.yaw_angle = 0.0
2024-02-06 03:30:51.542121: test_boat.gps.time='2024-02-06T03:30:50.000Z', self.flap.relative_angle = 124, self.wingsail.absolute_angle = 359.736328125, self.app_wind_magnitude = 0.0, self.app_wind_angle = 134.78005981445312, self.gps.lat = 29.721015, self.gps.lon = -95.401136667, self.gps.speed = 0.245, self.pitch_angle = 0.0, self.roll_angle = 0.0, self.yaw_angle = 0.0
2024-02-06 03:30:51.649070: test_boat.gps.time='2024-02-06T03:30:50.000Z', self.flap.relative_angle = 124, self.wingsail.absolute_angle = 2.4609375, self.app_wind_magnitude = 0.0, self.app_wind_angle = 135.83578491210938, self.gps.lat = 29.721015, self.gps.lon = -95.401136667, self.gps.speed = 0.245, self.pitch_angle = 0.0, self.roll_angle = 0.0, self.yaw_angle = 0.0
2024-02-06 03:30:51.756537: test_boat.gps.time='2024-02-06T03:30:50.000Z', self.flap.relative_angle = 124, self.wingsail.absolute_angle = 359.82421875, self.app_wind_magnitude = 0.0, self.app_wind_angle = 136.89151000976562, self.gps.lat = 29.721015, self.gps.lon = -95.401136667, self.gps.speed = 0.245, self.pitch_angle = 0.0, self.roll_angle = 0.0, self.yaw_angle = 0.0
2024-02-06 03:30:51.865579: test_boat.gps.time='2024-02-06T03:30:50.000Z', self.flap.relative_angle = 124, self.wingsail.absolute_angle = 1.40625, self.app_wind_magnitude = 0.0, self.app_wind_angle = 136.89151000976562, self.gps.lat = 29.721015, self.gps.lon = -95.401136667, self.gps.speed = 0.245, self.pitch_angle = 0.0, self.roll_angle = 0.0, self.yaw_angle = 0.0
2024-02-06 03:30:51.972558: test_boat.gps.time='2024-02-06T03:30:50.000Z', self.flap.relative_angle = 124, self.wingsail.absolute_angle = 0.791015625, self.app_wind_magnitude = 0.0, self.app_wind_angle = 136.5395965576172, self.gps.lat = 29.721015, self.gps.lon = -95.401136667, self.gps.speed = 0.245, self.pitch_angle = 0.0, self.roll_angle = 0.0, self.yaw_angle = 0.0
2024-02-06 03:30:52.079727: test_boat.gps.time='2024-02-06T03:30:50.000Z', self.flap.relative_angle = 124, self.wingsail.absolute_angle = 0.615234375, self.app_wind_magnitude = 0.0, self.app_wind_angle = 136.18768310546875, self.gps.lat = 29.721015, self.gps.lon = -95.401136667, self.gps.speed = 0.245, self.pitch_angle = 0.0, self.roll_angle = 0.0, self.yaw_angle = 0.0
2024-02-06 03:30:52.187070: test_boat.gps.time='2024-02-06T03:30:50.000Z', self.flap.relative_angle = 124, self.wingsail.absolute_angle = 2.63671875, self.app_wind_magnitude = 0.0, self.app_wind_angle = 136.5395965576172, self.gps.lat = 29.721015, self.gps.lon = -95.401136667, self.gps.speed = 0.245, self.pitch_angle = 0.0, self.roll_angle = 0.0, self.yaw_angle = 0.0
2024-02-06 03:30:52.296265: test_boat.gps.time='2024-02-06T03:30:50.000Z', self.flap.relative_angle = 124, self.wingsail.absolute_angle = 2.98828125, self.app_wind_magnitude = 0.0, self.app_wind_angle = 136.5395965576172, self.gps.lat = 29.721015, self.gps.lon = -95.401136667, self.gps.speed = 0.245, self.pitch_angle = 0.0, self.roll_angle = 0.0, self.yaw_angle = 0.0
2024-02-06 03:30:52.403145: test_boat.gps.time='2024-02-06T03:30:50.000Z', self.flap.relative_angle = 124, self.wingsail.absolute_angle = 359.47265625, self.app_wind_magnitude = 0.0, self.app_wind_angle = 134.78005981445312, self.gps.lat = 29.721015, self.gps.lon = -95.401136667, self.gps.speed = 0.031, self.pitch_angle = 0.0, self.roll_angle = 0.0, self.yaw_angle = 0.0
2024-02-06 03:30:52.510605: test_boat.gps.time='2024-02-06T03:30:50.000Z', self.flap.relative_angle = 124, self.wingsail.absolute_angle = 2.724609375, self.app_wind_magnitude = 0.0, self.app_wind_angle = 136.5395965576172, self.gps.lat = 29.721015, self.gps.lon = -95.401136667, self.gps.speed = 0.031, self.pitch_angle = 0.0, self.roll_angle = 0.0, self.yaw_angle = 0.0
2024-02-06 03:30:52.619580: test_boat.gps.time='2024-02-06T03:30:50.000Z', self.flap.relative_angle = 124, self.wingsail.absolute_angle = 1.7578125, self.app_wind_magnitude = 0.0, self.app_wind_angle = 136.89151000976562, self.gps.lat = 29.721015, self.gps.lon = -95.401136667, self.gps.speed = 0.031, self.pitch_angle = 0.0, self.roll_angle = 0.0, self.yaw_angle = 0.0
2024-02-06 03:30:52.726866: test_boat.gps.time='2024-02-06T03:30:50.000Z', self.flap.relative_angle = 124, self.wingsail.absolute_angle = 2.98828125, self.app_wind_magnitude = 0.0, self.app_wind_angle = 136.18768310546875, self.gps.lat = 29.721015, self.gps.lon = -95.401136667, self.gps.speed = 0.031, self.pitch_angle = 0.0, self.roll_angle = 0.0, self.yaw_angle = 0.0
2024-02-06 03:30:52.833963: test_boat.gps.time='2024-02-06T03:30:50.000Z', self.flap.relative_angle = 124, self.wingsail.absolute_angle = 1.669921875, self.app_wind_magnitude = 0.0, self.app_wind_angle = 136.18768310546875, self.gps.lat = 29.721015, self.gps.lon = -95.401136667, self.gps.speed = 0.031, self.pitch_angle = 0.0, self.roll_angle = 0.0, self.yaw_angle = 0.0
2024-02-06 03:30:52.943005: test_boat.gps.time='2024-02-06T03:30:50.000Z', self.flap.relative_angle = 124, self.wingsail.absolute_angle = 1.58203125, self.app_wind_magnitude = 0.0, self.app_wind_angle = 136.5395965576172, self.gps.lat = 29.721015, self.gps.lon = -95.401136667, self.gps.speed = 0.031, self.pitch_angle = 0.0, self.roll_angle = 0.0, self.yaw_angle = 0.0
2024-02-06 03:30:53.050093: test_boat.gps.time='2024-02-06T03:30:50.000Z', self.flap.relative_angle = 124, self.wingsail.absolute_angle = 3.076171875, self.app_wind_magnitude = 0.0, self.app_wind_angle = 134.78005981445312, self.gps.lat = 29.721015, self.gps.lon = -95.401136667, self.gps.speed = 0.031, self.pitch_angle = 0.0, self.roll_angle = 0.0, self.yaw_angle = 0.0
2024-02-06 03:30:53.157635: test_boat.gps.time='2024-02-06T03:30:50.000Z', self.flap.relative_angle = 124, self.wingsail.absolute_angle = 1.23046875, self.app_wind_magnitude = 0.0, self.app_wind_angle = 136.89151000976562, self.gps.lat = 29.721015, self.gps.lon = -95.401136667, self.gps.speed = 0.031, self.pitch_angle = 0.0, self.roll_angle = 0.0, self.yaw_angle = 0.0
2024-02-06 03:30:53.266191: test_boat.gps.time='2024-02-06T03:30:50.000Z', self.flap.relative_angle = 124, self.wingsail.absolute_angle = 358.681640625, self.app_wind_magnitude = 0.0, self.app_wind_angle = 137.243408203125, self.gps.lat = 29.721015, self.gps.lon = -95.401136667, self.gps.speed = 0.031, self.pitch_angle = 0.0, self.roll_angle = 0.0, self.yaw_angle = 0.0
2024-02-06 03:30:53.373432: test_boat.gps.time='2024-02-06T03:30:50.000Z', self.flap.relative_angle = 124, self.wingsail.absolute_angle = 1.58203125, self.app_wind_magnitude = 0.0, self.app_wind_angle = 138.29913330078125, self.gps.lat = 29.721015, self.gps.lon = -95.401136667, self.gps.speed = 0.031, self.pitch_angle = 0.0, self.roll_angle = 0.0, self.yaw_angle = 0.0
2024-02-06 03:30:53.480450: test_boat.gps.time='2024-02-06T03:30:51.000Z', self.flap.relative_angle = 124, self.wingsail.absolute_angle = 1.0546875, self.app_wind_magnitude = 0.08797653764486313, self.app_wind_angle = 133.72434997558594, self.gps.lat = 29.721015, self.gps.lon = -95.401136667, self.gps.speed = 0.0, self.pitch_angle = 0.0, self.roll_angle = 0.0, self.yaw_angle = 0.0
2024-02-06 03:30:53.589991: test_boat.gps.time='2024-02-06T03:30:51.000Z', self.flap.relative_angle = 124, self.wingsail.absolute_angle = 0.17578125, self.app_wind_magnitude = 0.0, self.app_wind_angle = 136.89151000976562, self.gps.lat = 29.721015, self.gps.lon = -95.401136667, self.gps.speed = 0.0, self.pitch_angle = 0.0, self.roll_angle = 0.0, self.yaw_angle = 0.0
2024-02-06 03:30:53.696742: test_boat.gps.time='2024-02-06T03:30:51.000Z', self.flap.relative_angle = 124, self.wingsail.absolute_angle = 0.615234375, self.app_wind_magnitude = 0.08797653764486313, self.app_wind_angle = 133.02053833007812, self.gps.lat = 29.721015, self.gps.lon = -95.401136667, self.gps.speed = 0.0, self.pitch_angle = 0.0, self.roll_angle = 0.0, self.yaw_angle = 0.0
2024-02-06 03:30:53.804200: test_boat.gps.time='2024-02-06T03:30:51.000Z', self.flap.relative_angle = 124, self.wingsail.absolute_angle = 0.703125, self.app_wind_magnitude = 0.0, self.app_wind_angle = 135.83578491210938, self.gps.lat = 29.721015, self.gps.lon = -95.401136667, self.gps.speed = 0.0, self.pitch_angle = 0.0, self.roll_angle = 0.0, self.yaw_angle = 0.0
2024-02-06 03:30:53.913601: test_boat.gps.time='2024-02-06T03:30:51.000Z', self.flap.relative_angle = 124, self.wingsail.absolute_angle = 1.93359375, self.app_wind_magnitude = -0.043988268822431564, self.app_wind_angle = 130.9091033935547, self.gps.lat = 29.721015, self.gps.lon = -95.401136667, self.gps.speed = 0.0, self.pitch_angle = 0.0, self.roll_angle = 0.0, self.yaw_angle = 0.0
2024-02-06 03:30:54.020538: test_boat.gps.time='2024-02-06T03:30:51.000Z', self.flap.relative_angle = 124, self.wingsail.absolute_angle = 359.912109375, self.app_wind_magnitude = 0.0, self.app_wind_angle = 133.3724365234375, self.gps.lat = 29.721015, self.gps.lon = -95.401136667, self.gps.speed = 0.0, self.pitch_angle = 0.0, self.roll_angle = 0.0, self.yaw_angle = 0.0
2024-02-06 03:30:54.127973: test_boat.gps.time='2024-02-06T03:30:51.000Z', self.flap.relative_angle = 124, self.wingsail.absolute_angle = 1.669921875, self.app_wind_magnitude = 0.0, self.app_wind_angle = 136.89151000976562, self.gps.lat = 29.721015, self.gps.lon = -95.401136667, self.gps.speed = 0.0, self.pitch_angle = 0.0, self.roll_angle = 0.0, self.yaw_angle = 0.0
2024-02-06 03:30:54.236413: test_boat.gps.time='2024-02-06T03:30:51.000Z', self.flap.relative_angle = 124, self.wingsail.absolute_angle = 2.28515625, self.app_wind_magnitude = 0.0, self.app_wind_angle = 135.83578491210938, self.gps.lat = 29.721015, self.gps.lon = -95.401136667, self.gps.speed = 0.0, self.pitch_angle = 0.0, self.roll_angle = 0.0, self.yaw_angle = 0.0
2024-02-06 03:30:54.343257: test_boat.gps.time='2024-02-06T03:30:51.000Z', self.flap.relative_angle = 124, self.wingsail.absolute_angle = 359.47265625, self.app_wind_magnitude = 0.0, self.app_wind_angle = 135.48388671875, self.gps.lat = 29.721015, self.gps.lon = -95.401136667, self.gps.speed = 0.0, self.pitch_angle = 0.0, self.roll_angle = 0.0, self.yaw_angle = 0.0
2024-02-06 03:30:54.451112: test_boat.gps.time='2024-02-06T03:30:51.000Z', self.flap.relative_angle = 124, self.wingsail.absolute_angle = 2.4609375, self.app_wind_magnitude = 0.0, self.app_wind_angle = 136.5395965576172, self.gps.lat = 29.721015, self.gps.lon = -95.401136667, self.gps.speed = 0.0, self.pitch_angle = 0.0, self.roll_angle = 0.0, self.yaw_angle = 0.0
2024-02-06 03:30:54.560617: test_boat.gps.time='2024-02-06T03:30:51.000Z', self.flap.relative_angle = 124, self.wingsail.absolute_angle = 1.23046875, self.app_wind_magnitude = 0.0, self.app_wind_angle = 135.83578491210938, self.gps.lat = 29.721015, self.gps.lon = -95.401136667, self.gps.speed = 0.118, self.pitch_angle = 0.0, self.roll_angle = 0.0, self.yaw_angle = 0.0
2024-02-06 03:30:54.667406: test_boat.gps.time='2024-02-06T03:30:51.000Z', self.flap.relative_angle = 124, self.wingsail.absolute_angle = 359.736328125, self.app_wind_magnitude = 0.0, self.app_wind_angle = 134.78005981445312, self.gps.lat = 29.721015, self.gps.lon = -95.401136667, self.gps.speed = 0.118, self.pitch_angle = 0.0, self.roll_angle = 0.0, self.yaw_angle = 0.0
2024-02-06 03:30:54.774841: test_boat.gps.time='2024-02-06T03:30:51.000Z', self.flap.relative_angle = 124, self.wingsail.absolute_angle = 1.23046875, self.app_wind_magnitude = 0.0, self.app_wind_angle = 136.5395965576172, self.gps.lat = 29.721015, self.gps.lon = -95.401136667, self.gps.speed = 0.118, self.pitch_angle = 0.0, self.roll_angle = 0.0, self.yaw_angle = 0.0
2024-02-06 03:30:54.883613: test_boat.gps.time='2024-02-06T03:30:51.000Z', self.flap.relative_angle = 124, self.wingsail.absolute_angle = 3.076171875, self.app_wind_magnitude = 0.0, self.app_wind_angle = 136.89151000976562, self.gps.lat = 29.721015, self.gps.lon = -95.401136667, self.gps.speed = 0.118, self.pitch_angle = 0.0, self.roll_angle = 0.0, self.yaw_angle = 0.0
2024-02-06 03:30:54.990735: test_boat.gps.time='2024-02-06T03:30:51.000Z', self.flap.relative_angle = 124, self.wingsail.absolute_angle = 359.033203125, self.app_wind_magnitude = 0.0, self.app_wind_angle = 135.48388671875, self.gps.lat = 29.721015, self.gps.lon = -95.401136667, self.gps.speed = 0.118, self.pitch_angle = 0.0, self.roll_angle = 0.0, self.yaw_angle = 0.0
2024-02-06 03:30:55.098344: test_boat.gps.time='2024-02-06T03:30:51.000Z', self.flap.relative_angle = 124, self.wingsail.absolute_angle = 2.548828125, self.app_wind_magnitude = 0.0, self.app_wind_angle = 136.5395965576172, self.gps.lat = 29.721015, self.gps.lon = -95.401136667, self.gps.speed = 0.118, self.pitch_angle = 0.0, self.roll_angle = 0.0, self.yaw_angle = 0.0
2024-02-06 03:30:55.206979: test_boat.gps.time='2024-02-06T03:30:51.000Z', self.flap.relative_angle = 124, self.wingsail.absolute_angle = 0.3515625, self.app_wind_magnitude = 0.0, self.app_wind_angle = 136.89151000976562, self.gps.lat = 29.721015, self.gps.lon = -95.401136667, self.gps.speed = 0.118, self.pitch_angle = 0.0, self.roll_angle = 0.0, self.yaw_angle = 0.0
2024-02-06 03:30:55.314232: test_boat.gps.time='2024-02-06T03:30:51.000Z', self.flap.relative_angle = 124, self.wingsail.absolute_angle = 360.0, self.app_wind_magnitude = 0.0, self.app_wind_angle = 136.18768310546875, self.gps.lat = 29.721015, self.gps.lon = -95.401136667, self.gps.speed = 0.118, self.pitch_angle = 0.0, self.roll_angle = 0.0, self.yaw_angle = 0.0
2024-02-06 03:30:55.421338: test_boat.gps.time='2024-02-06T03:30:51.000Z', self.flap.relative_angle = 124, self.wingsail.absolute_angle = 2.109375, self.app_wind_magnitude = 0.0, self.app_wind_angle = 134.78005981445312, self.gps.lat = 29.721015, self.gps.lon = -95.401136667, self.gps.speed = 0.118, self.pitch_angle = 0.0, self.roll_angle = 0.0, self.yaw_angle = 0.0
2024-02-06 03:30:55.530720: test_boat.gps.time='2024-02-06T03:30:51.000Z', self.flap.relative_angle = 124, self.wingsail.absolute_angle = 3.251953125, self.app_wind_magnitude = 0.0, self.app_wind_angle = 136.5395965576172, self.gps.lat = 29.721015, self.gps.lon = -95.401136667, self.gps.speed = 0.118, self.pitch_angle = 0.0, self.roll_angle = 0.0, self.yaw_angle = 0.0
2024-02-06 03:30:55.637964: test_boat.gps.time='2024-02-06T03:30:52.000Z', self.flap.relative_angle = 124, self.wingsail.absolute_angle = 358.59375, self.app_wind_magnitude = 0.0, self.app_wind_angle = 135.83578491210938, self.gps.lat = 29.721013333, self.gps.lon = -95.401136667, self.gps.speed = 0.185, self.pitch_angle = 0.0, self.roll_angle = 0.0, self.yaw_angle = 0.0
2024-02-06 03:30:55.744935: test_boat.gps.time='2024-02-06T03:30:52.000Z', self.flap.relative_angle = 124, self.wingsail.absolute_angle = 2.548828125, self.app_wind_magnitude = 0.0, self.app_wind_angle = 137.243408203125, self.gps.lat = 29.721013333, self.gps.lon = -95.401136667, self.gps.speed = 0.185, self.pitch_angle = 0.0, self.roll_angle = 0.0, self.yaw_angle = 0.0
2024-02-06 03:30:55.853874: test_boat.gps.time='2024-02-06T03:30:52.000Z', self.flap.relative_angle = 124, self.wingsail.absolute_angle = 0.52734375, self.app_wind_magnitude = 0.0, self.app_wind_angle = 137.59530639648438, self.gps.lat = 29.721013333, self.gps.lon = -95.401136667, self.gps.speed = 0.185, self.pitch_angle = 0.0, self.roll_angle = 0.0, self.yaw_angle = 0.0
2024-02-06 03:30:55.961346: test_boat.gps.time='2024-02-06T03:30:52.000Z', self.flap.relative_angle = 124, self.wingsail.absolute_angle = 359.47265625, self.app_wind_magnitude = 0.0, self.app_wind_angle = 133.02053833007812, self.gps.lat = 29.721013333, self.gps.lon = -95.401136667, self.gps.speed = 0.185, self.pitch_angle = 0.0, self.roll_angle = 0.0, self.yaw_angle = 0.0
2024-02-06 03:30:56.068109: test_boat.gps.time='2024-02-06T03:30:52.000Z', self.flap.relative_angle = 124, self.wingsail.absolute_angle = 2.197265625, self.app_wind_magnitude = 0.0, self.app_wind_angle = 136.18768310546875, self.gps.lat = 29.721013333, self.gps.lon = -95.401136667, self.gps.speed = 0.185, self.pitch_angle = 0.0, self.roll_angle = 0.0, self.yaw_angle = 0.0
2024-02-07 21:39:56.266038: test_boat.gps.time='2024-02-07T21:39:56.000Z', self.flap.relative_angle = 124, self.wingsail.absolute_angle = 356.572265625, self.app_wind_magnitude = 0.0, self.app_wind_angle = 294.19354248046875, self.gps.lat = 29.721225, self.gps.lon = -95.401451667, self.gps.speed = 0.175, self.pitch_angle = 0.0, self.roll_angle = 0.0, self.yaw_angle = 0.0
2024-02-07 21:39:56.372723: test_boat.gps.time='2024-02-07T21:39:56.000Z', self.flap.relative_angle = 124, self.wingsail.absolute_angle = 1.40625, self.app_wind_magnitude = 0.0, self.app_wind_angle = 293.8416442871094, self.gps.lat = 29.721225, self.gps.lon = -95.401451667, self.gps.speed = 0.175, self.pitch_angle = 0.0, self.roll_angle = 0.0, self.yaw_angle = 0.0
2024-02-07 21:39:56.482234: test_boat.gps.time='2024-02-07T21:39:56.000Z', self.flap.relative_angle = 124, self.wingsail.absolute_angle = 356.220703125, self.app_wind_magnitude = 0.0, self.app_wind_angle = 294.54547119140625, self.gps.lat = 29.721225, self.gps.lon = -95.401451667, self.gps.speed = 0.175, self.pitch_angle = 0.0, self.roll_angle = 0.0, self.yaw_angle = 0.0
2024-02-07 21:39:56.589422: test_boat.gps.time='2024-02-07T21:39:56.000Z', self.flap.relative_angle = 124, self.wingsail.absolute_angle = 2.28515625, self.app_wind_magnitude = 0.0, self.app_wind_angle = 293.8416442871094, self.gps.lat = 29.721225, self.gps.lon = -95.401451667, self.gps.speed = 0.175, self.pitch_angle = 0.0, self.roll_angle = 0.0, self.yaw_angle = 0.0
2024-02-07 21:39:56.696637: test_boat.gps.time='2024-02-07T21:39:56.000Z', self.flap.relative_angle = 124, self.wingsail.absolute_angle = 2.373046875, self.app_wind_magnitude = 0.0, self.app_wind_angle = 294.19354248046875, self.gps.lat = 29.721225, self.gps.lon = -95.401451667, self.gps.speed = 0.175, self.pitch_angle = 0.0, self.roll_angle = 0.0, self.yaw_angle = 0.0
2024-02-07 21:39:56.805342: test_boat.gps.time='2024-02-07T21:39:56.000Z', self.flap.relative_angle = 124, self.wingsail.absolute_angle = 356.923828125, self.app_wind_magnitude = 0.0, self.app_wind_angle = 293.8416442871094, self.gps.lat = 29.721225, self.gps.lon = -95.401451667, self.gps.speed = 0.175, self.pitch_angle = 0.0, self.roll_angle = 0.0, self.yaw_angle = 0.0
2024-02-07 21:39:56.912447: test_boat.gps.time='2024-02-07T21:39:56.000Z', self.flap.relative_angle = 124, self.wingsail.absolute_angle = 0.263671875, self.app_wind_magnitude = 0.0, self.app_wind_angle = 292.7859191894531, self.gps.lat = 29.721225, self.gps.lon = -95.401451667, self.gps.speed = 0.175, self.pitch_angle = 0.0, self.roll_angle = 0.0, self.yaw_angle = 0.0
2024-02-07 21:39:57.019663: test_boat.gps.time='2024-02-07T21:39:56.000Z', self.flap.relative_angle = 124, self.wingsail.absolute_angle = 356.8359375, self.app_wind_magnitude = 0.0, self.app_wind_angle = 293.8416442871094, self.gps.lat = 29.721225, self.gps.lon = -95.401451667, self.gps.speed = 0.175, self.pitch_angle = 0.0, self.roll_angle = 0.0, self.yaw_angle = 0.0
2024-02-07 21:39:57.127833: test_boat.gps.time='2024-02-07T21:39:56.000Z', self.flap.relative_angle = 124, self.wingsail.absolute_angle = 0.87890625, self.app_wind_magnitude = 0.0, self.app_wind_angle = 293.48974609375, self.gps.lat = 29.721225, self.gps.lon = -95.401451667, self.gps.speed = 0.175, self.pitch_angle = 0.0, self.roll_angle = 0.0, self.yaw_angle = 0.0
2024-02-07 21:39:57.236194: test_boat.gps.time='2024-02-07T21:39:56.000Z', self.flap.relative_angle = 124, self.wingsail.absolute_angle = 0.439453125, self.app_wind_magnitude = 0.0, self.app_wind_angle = 293.48974609375, self.gps.lat = 29.721225, self.gps.lon = -95.401451667, self.gps.speed = 0.175, self.pitch_angle = 0.0, self.roll_angle = 0.0, self.yaw_angle = 0.0
2024-02-07 21:39:57.343694: test_boat.gps.time='2024-02-07T21:39:57.000Z', self.flap.relative_angle = 124, self.wingsail.absolute_angle = 359.6484375, self.app_wind_magnitude = 0.0, self.app_wind_angle = 294.19354248046875, self.gps.lat = 29.721225, self.gps.lon = -95.40145, self.gps.speed = 0.154, self.pitch_angle = 0.0, self.roll_angle = 0.0, self.yaw_angle = 0.0
2024-02-07 21:39:57.450719: test_boat.gps.time='2024-02-07T21:39:57.000Z', self.flap.relative_angle = 124, self.wingsail.absolute_angle = 1.93359375, self.app_wind_magnitude = 0.0, self.app_wind_angle = 294.19354248046875, self.gps.lat = 29.721225, self.gps.lon = -95.40145, self.gps.speed = 0.154, self.pitch_angle = 0.0, self.roll_angle = 0.0, self.yaw_angle = 0.0
2024-02-07 21:39:57.559569: test_boat.gps.time='2024-02-07T21:39:57.000Z', self.flap.relative_angle = 124, self.wingsail.absolute_angle = 4.74609375, self.app_wind_magnitude = 0.0, self.app_wind_angle = 293.8416442871094, self.gps.lat = 29.721225, self.gps.lon = -95.40145, self.gps.speed = 0.154, self.pitch_angle = 0.0, self.roll_angle = 0.0, self.yaw_angle = 0.0
2024-02-07 21:39:57.666745: test_boat.gps.time='2024-02-07T21:39:57.000Z', self.flap.relative_angle = 124, self.wingsail.absolute_angle = 1.845703125, self.app_wind_magnitude = 0.0, self.app_wind_angle = 293.48974609375, self.gps.lat = 29.721225, self.gps.lon = -95.40145, self.gps.speed = 0.154, self.pitch_angle = 0.0, self.roll_angle = 0.0, self.yaw_angle = 0.0
2024-02-07 21:39:57.774159: test_boat.gps.time='2024-02-07T21:39:57.000Z', self.flap.relative_angle = 124, self.wingsail.absolute_angle = 1.142578125, self.app_wind_magnitude = 0.0, self.app_wind_angle = 293.8416442871094, self.gps.lat = 29.721225, self.gps.lon = -95.40145, self.gps.speed = 0.154, self.pitch_angle = 0.0, self.roll_angle = 0.0, self.yaw_angle = 0.0
2024-02-07 21:39:57.883814: test_boat.gps.time='2024-02-07T21:39:57.000Z', self.flap.relative_angle = 124, self.wingsail.absolute_angle = 0.087890625, self.app_wind_magnitude = 0.0, self.app_wind_angle = 293.8416442871094, self.gps.lat = 29.721225, self.gps.lon = -95.40145, self.gps.speed = 0.154, self.pitch_angle = 0.0, self.roll_angle = 0.0, self.yaw_angle = 0.0
2024-02-07 21:39:57.990367: test_boat.gps.time='2024-02-07T21:39:57.000Z', self.flap.relative_angle = 124, self.wingsail.absolute_angle = 356.220703125, self.app_wind_magnitude = 0.0, self.app_wind_angle = 292.43402099609375, self.gps.lat = 29.721225, self.gps.lon = -95.40145, self.gps.speed = 0.154, self.pitch_angle = 0.0, self.roll_angle = 0.0, self.yaw_angle = 0.0
2024-02-07 21:39:58.097805: test_boat.gps.time='2024-02-07T21:39:57.000Z', self.flap.relative_angle = 124, self.wingsail.absolute_angle = 356.484375, self.app_wind_magnitude = 0.0, self.app_wind_angle = 294.54547119140625, self.gps.lat = 29.721225, self.gps.lon = -95.40145, self.gps.speed = 0.154, self.pitch_angle = 0.0, self.roll_angle = 0.0, self.yaw_angle = 0.0
2024-02-07 21:39:58.206886: test_boat.gps.time='2024-02-07T21:39:57.000Z', self.flap.relative_angle = 124, self.wingsail.absolute_angle = 0.52734375, self.app_wind_magnitude = 0.0, self.app_wind_angle = 293.8416442871094, self.gps.lat = 29.721225, self.gps.lon = -95.40145, self.gps.speed = 0.154, self.pitch_angle = 0.0, self.roll_angle = 0.0, self.yaw_angle = 0.0
2024-02-07 21:39:58.313818: test_boat.gps.time='2024-02-07T21:39:57.000Z', self.flap.relative_angle = 124, self.wingsail.absolute_angle = 5.009765625, self.app_wind_magnitude = 0.0, self.app_wind_angle = 293.8416442871094, self.gps.lat = 29.721225, self.gps.lon = -95.40145, self.gps.speed = 0.154, self.pitch_angle = 0.0, self.roll_angle = 0.0, self.yaw_angle = 0.0
2024-02-07 21:39:58.506217: test_boat.gps.time='2024-02-07T21:39:58.000Z', self.flap.relative_angle = 124, self.wingsail.absolute_angle = 359.736328125, self.app_wind_magnitude = 0.0, self.app_wind_angle = 294.19354248046875, self.gps.lat = 29.721225, self.gps.lon = -95.401448333, self.gps.speed = 0.031, self.pitch_angle = 0.0, self.roll_angle = 0.0, self.yaw_angle = 0.0
2024-02-07 21:39:58.604554: test_boat.gps.time='2024-02-07T21:39:58.000Z', self.flap.relative_angle = 124, self.wingsail.absolute_angle = 355.4296875, self.app_wind_magnitude = 0.0, self.app_wind_angle = 293.8416442871094, self.gps.lat = 29.721225, self.gps.lon = -95.401448333, self.gps.speed = 0.031, self.pitch_angle = 0.0, self.roll_angle = 0.0, self.yaw_angle = 0.0
2024-02-07 21:39:58.702915: test_boat.gps.time='2024-02-07T21:39:58.000Z', self.flap.relative_angle = 124, self.wingsail.absolute_angle = 0.615234375, self.app_wind_magnitude = 0.0, self.app_wind_angle = 293.8416442871094, self.gps.lat = 29.721225, self.gps.lon = -95.401448333, self.gps.speed = 0.031, self.pitch_angle = 0.0, self.roll_angle = 0.0, self.yaw_angle = 0.0
2024-02-07 21:39:58.800455: test_boat.gps.time='2024-02-07T21:39:58.000Z', self.flap.relative_angle = 124, self.wingsail.absolute_angle = 0.703125, self.app_wind_magnitude = 0.0, self.app_wind_angle = 293.8416442871094, self.gps.lat = 29.721225, self.gps.lon = -95.401448333, self.gps.speed = 0.031, self.pitch_angle = 0.0, self.roll_angle = 0.0, self.yaw_angle = 0.0
2024-02-07 21:39:58.897379: test_boat.gps.time='2024-02-07T21:39:58.000Z', self.flap.relative_angle = 124, self.wingsail.absolute_angle = 357.01171875, self.app_wind_magnitude = 0.0, self.app_wind_angle = 294.19354248046875, self.gps.lat = 29.721225, self.gps.lon = -95.401448333, self.gps.speed = 0.031, self.pitch_angle = 0.0, self.roll_angle = 0.0, self.yaw_angle = 0.0
2024-02-07 21:39:58.993756: test_boat.gps.time='2024-02-07T21:39:58.000Z', self.flap.relative_angle = 124, self.wingsail.absolute_angle = 357.01171875, self.app_wind_magnitude = 0.0, self.app_wind_angle = 293.8416442871094, self.gps.lat = 29.721225, self.gps.lon = -95.401448333, self.gps.speed = 0.031, self.pitch_angle = 0.0, self.roll_angle = 0.0, self.yaw_angle = 0.0
2024-02-07 21:39:59.091968: test_boat.gps.time='2024-02-07T21:39:58.000Z', self.flap.relative_angle = 124, self.wingsail.absolute_angle = 4.306640625, self.app_wind_magnitude = 0.0, self.app_wind_angle = 294.19354248046875, self.gps.lat = 29.721225, self.gps.lon = -95.401448333, self.gps.speed = 0.031, self.pitch_angle = 0.0, self.roll_angle = 0.0, self.yaw_angle = 0.0
2024-02-07 21:39:59.190137: test_boat.gps.time='2024-02-07T21:39:58.000Z', self.flap.relative_angle = 124, self.wingsail.absolute_angle = 1.7578125, self.app_wind_magnitude = 0.0, self.app_wind_angle = 293.8416442871094, self.gps.lat = 29.721225, self.gps.lon = -95.401448333, self.gps.speed = 0.031, self.pitch_angle = 0.0, self.roll_angle = 0.0, self.yaw_angle = 0.0
2024-02-07 21:39:59.287565: test_boat.gps.time='2024-02-07T21:39:58.000Z', self.flap.relative_angle = 124, self.wingsail.absolute_angle = 357.890625, self.app_wind_magnitude = 0.0, self.app_wind_angle = 293.8416442871094, self.gps.lat = 29.721225, self.gps.lon = -95.401448333, self.gps.speed = 0.031, self.pitch_angle = 0.0, self.roll_angle = 0.0, self.yaw_angle = 0.0
2024-02-07 21:39:59.391883: test_boat.gps.time='2024-02-07T21:39:58.000Z', self.flap.relative_angle = 124, self.wingsail.absolute_angle = 3.076171875, self.app_wind_magnitude = 0.0, self.app_wind_angle = 293.48974609375, self.gps.lat = 29.721225, self.gps.lon = -95.401448333, self.gps.speed = 0.031, self.pitch_angle = 0.0, self.roll_angle = 0.0, self.yaw_angle = 0.0
2024-02-07 21:39:59.501307: test_boat.gps.time='2024-02-07T21:39:58.000Z', self.flap.relative_angle = 124, self.wingsail.absolute_angle = 357.5390625, self.app_wind_magnitude = 0.0, self.app_wind_angle = 293.8416442871094, self.gps.lat = 29.721225, self.gps.lon = -95.401448333, self.gps.speed = 0.031, self.pitch_angle = 0.0, self.roll_angle = 0.0, self.yaw_angle = 0.0
2024-02-07 21:39:59.608947: test_boat.gps.time='2024-02-07T21:39:59.000Z', self.flap.relative_angle = 124, self.wingsail.absolute_angle = 358.330078125, self.app_wind_magnitude = 0.0, self.app_wind_angle = 294.19354248046875, self.gps.lat = 29.721226667, self.gps.lon = -95.401448333, self.gps.speed = 0.206, self.pitch_angle = 0.0, self.roll_angle = 0.0, self.yaw_angle = 0.0
2024-02-07 21:39:59.715801: test_boat.gps.time='2024-02-07T21:39:59.000Z', self.flap.relative_angle = 124, self.wingsail.absolute_angle = 0.3515625, self.app_wind_magnitude = 0.0, self.app_wind_angle = 293.8416442871094, self.gps.lat = 29.721226667, self.gps.lon = -95.401448333, self.gps.speed = 0.206, self.pitch_angle = 0.0, self.roll_angle = 0.0, self.yaw_angle = 0.0
2024-02-07 21:39:59.824658: test_boat.gps.time='2024-02-07T21:39:59.000Z', self.flap.relative_angle = 124, self.wingsail.absolute_angle = 359.6484375, self.app_wind_magnitude = 0.0, self.app_wind_angle = 294.54547119140625, self.gps.lat = 29.721226667, self.gps.lon = -95.401448333, self.gps.speed = 0.206, self.pitch_angle = 0.0, self.roll_angle = 0.0, self.yaw_angle = 0.0
2024-02-07 21:39:59.932246: test_boat.gps.time='2024-02-07T21:39:59.000Z', self.flap.relative_angle = 124, self.wingsail.absolute_angle = 2.548828125, self.app_wind_magnitude = 0.0, self.app_wind_angle = 293.1378173828125, self.gps.lat = 29.721226667, self.gps.lon = -95.401448333, self.gps.speed = 0.206, self.pitch_angle = 0.0, self.roll_angle = 0.0, self.yaw_angle = 0.0
2024-02-07 21:40:00.039815: test_boat.gps.time='2024-02-07T21:39:59.000Z', self.flap.relative_angle = 124, self.wingsail.absolute_angle = 357.099609375, self.app_wind_magnitude = 0.0, self.app_wind_angle = 294.19354248046875, self.gps.lat = 29.721226667, self.gps.lon = -95.401448333, self.gps.speed = 0.206, self.pitch_angle = 0.0, self.roll_angle = 0.0, self.yaw_angle = 0.0
2024-02-07 21:40:00.148349: test_boat.gps.time='2024-02-07T21:39:59.000Z', self.flap.relative_angle = 124, self.wingsail.absolute_angle = 357.099609375, self.app_wind_magnitude = 0.0, self.app_wind_angle = 293.8416442871094, self.gps.lat = 29.721226667, self.gps.lon = -95.401448333, self.gps.speed = 0.206, self.pitch_angle = 0.0, self.roll_angle = 0.0, self.yaw_angle = 0.0
2024-02-07 21:40:00.255364: test_boat.gps.time='2024-02-07T21:39:59.000Z', self.flap.relative_angle = 124, self.wingsail.absolute_angle = 358.06640625, self.app_wind_magnitude = 0.0, self.app_wind_angle = 294.54547119140625, self.gps.lat = 29.721226667, self.gps.lon = -95.401448333, self.gps.speed = 0.206, self.pitch_angle = 0.0, self.roll_angle = 0.0, self.yaw_angle = 0.0
2024-02-07 21:40:00.364813: test_boat.gps.time='2024-02-07T21:39:59.000Z', self.flap.relative_angle = 124, self.wingsail.absolute_angle = 2.28515625, self.app_wind_magnitude = 0.0, self.app_wind_angle = 293.8416442871094, self.gps.lat = 29.721226667, self.gps.lon = -95.401448333, self.gps.speed = 0.206, self.pitch_angle = 0.0, self.roll_angle = 0.0, self.yaw_angle = 0.0
2024-02-07 21:40:00.472150: test_boat.gps.time='2024-02-07T21:39:59.000Z', self.flap.relative_angle = 124, self.wingsail.absolute_angle = 358.857421875, self.app_wind_magnitude = 0.0, self.app_wind_angle = 293.48974609375, self.gps.lat = 29.721226667, self.gps.lon = -95.401448333, self.gps.speed = 0.206, self.pitch_angle = 0.0, self.roll_angle = 0.0, self.yaw_angle = 0.0
2024-02-07 21:40:00.579053: test_boat.gps.time='2024-02-07T21:39:59.000Z', self.flap.relative_angle = 124, self.wingsail.absolute_angle = 356.044921875, self.app_wind_magnitude = 0.0, self.app_wind_angle = 293.8416442871094, self.gps.lat = 29.721226667, self.gps.lon = -95.401448333, self.gps.speed = 0.206, self.pitch_angle = 0.0, self.roll_angle = 0.0, self.yaw_angle = 0.0
2024-02-07 21:40:00.688944: test_boat.gps.time='2024-02-07T21:40:00.000Z', self.flap.relative_angle = 124, self.wingsail.absolute_angle = 0.703125, self.app_wind_magnitude = 0.0, self.app_wind_angle = 294.19354248046875, self.gps.lat = 29.721228333, self.gps.lon = -95.401446667, self.gps.speed = 0.252, self.pitch_angle = 0.0, self.roll_angle = 0.0, self.yaw_angle = 0.0
2024-02-07 21:40:00.795455: test_boat.gps.time='2024-02-07T21:40:00.000Z', self.flap.relative_angle = 124, self.wingsail.absolute_angle = 2.197265625, self.app_wind_magnitude = 0.0, self.app_wind_angle = 293.48974609375, self.gps.lat = 29.721228333, self.gps.lon = -95.401446667, self.gps.speed = 0.252, self.pitch_angle = 0.0, self.roll_angle = 0.0, self.yaw_angle = 0.0
2024-02-07 21:40:00.902677: test_boat.gps.time='2024-02-07T21:40:00.000Z', self.flap.relative_angle = 124, self.wingsail.absolute_angle = 2.021484375, self.app_wind_magnitude = 0.0, self.app_wind_angle = 293.8416442871094, self.gps.lat = 29.721228333, self.gps.lon = -95.401446667, self.gps.speed = 0.252, self.pitch_angle = 0.0, self.roll_angle = 0.0, self.yaw_angle = 0.0
2024-02-07 21:40:01.011946: test_boat.gps.time='2024-02-07T21:40:00.000Z', self.flap.relative_angle = 124, self.wingsail.absolute_angle = 357.626953125, self.app_wind_magnitude = 0.0, self.app_wind_angle = 293.8416442871094, self.gps.lat = 29.721228333, self.gps.lon = -95.401446667, self.gps.speed = 0.252, self.pitch_angle = 0.0, self.roll_angle = 0.0, self.yaw_angle = 0.0
2024-02-07 21:40:01.119197: test_boat.gps.time='2024-02-07T21:40:00.000Z', self.flap.relative_angle = 124, self.wingsail.absolute_angle = 356.66015625, self.app_wind_magnitude = 0.0, self.app_wind_angle = 293.48974609375, self.gps.lat = 29.721228333, self.gps.lon = -95.401446667, self.gps.speed = 0.252, self.pitch_angle = 0.0, self.roll_angle = 0.0, self.yaw_angle = 0.0
2024-02-07 21:40:01.226322: test_boat.gps.time='2024-02-07T21:40:00.000Z', self.flap.relative_angle = 124, self.wingsail.absolute_angle = 0.87890625, self.app_wind_magnitude = 0.0, self.app_wind_angle = 294.19354248046875, self.gps.lat = 29.721228333, self.gps.lon = -95.401446667, self.gps.speed = 0.252, self.pitch_angle = 0.0, self.roll_angle = 0.0, self.yaw_angle = 0.0
2024-02-07 21:40:01.335584: test_boat.gps.time='2024-02-07T21:40:00.000Z', self.flap.relative_angle = 124, self.wingsail.absolute_angle = 2.28515625, self.app_wind_magnitude = 0.0, self.app_wind_angle = 292.43402099609375, self.gps.lat = 29.721228333, self.gps.lon = -95.401446667, self.gps.speed = 0.252, self.pitch_angle = 0.0, self.roll_angle = 0.0, self.yaw_angle = 0.0
2024-02-07 21:40:01.442926: test_boat.gps.time='2024-02-07T21:40:00.000Z', self.flap.relative_angle = 124, self.wingsail.absolute_angle = 1.845703125, self.app_wind_magnitude = 0.0, self.app_wind_angle = 293.48974609375, self.gps.lat = 29.721228333, self.gps.lon = -95.401446667, self.gps.speed = 0.252, self.pitch_angle = 0.0, self.roll_angle = 0.0, self.yaw_angle = 0.0
2024-02-07 21:40:01.549798: test_boat.gps.time='2024-02-07T21:40:00.000Z', self.flap.relative_angle = 124, self.wingsail.absolute_angle = 0.791015625, self.app_wind_magnitude = 0.0, self.app_wind_angle = 293.8416442871094, self.gps.lat = 29.721228333, self.gps.lon = -95.401446667, self.gps.speed = 0.252, self.pitch_angle = 0.0, self.roll_angle = 0.0, self.yaw_angle = 0.0
2024-02-07 21:40:01.657219: test_boat.gps.time='2024-02-07T21:40:00.000Z', self.flap.relative_angle = 124, self.wingsail.absolute_angle = 1.7578125, self.app_wind_magnitude = 0.0, self.app_wind_angle = 293.8416442871094, self.gps.lat = 29.721228333, self.gps.lon = -95.401446667, self.gps.speed = 0.252, self.pitch_angle = 0.0, self.roll_angle = 0.0, self.yaw_angle = 0.0
2024-02-07 21:40:01.767054: test_boat.gps.time='2024-02-07T21:40:01.000Z', self.flap.relative_angle = 124, self.wingsail.absolute_angle = 1.58203125, self.app_wind_magnitude = 0.0, self.app_wind_angle = 293.8416442871094, self.gps.lat = 29.721228333, self.gps.lon = -95.401443333, self.gps.speed = 0.288, self.pitch_angle = 0.0, self.roll_angle = 0.0, self.yaw_angle = 0.0
2024-02-07 21:40:01.873513: test_boat.gps.time='2024-02-07T21:40:01.000Z', self.flap.relative_angle = 124, self.wingsail.absolute_angle = 3.1640625, self.app_wind_magnitude = 0.0, self.app_wind_angle = 293.48974609375, self.gps.lat = 29.721228333, self.gps.lon = -95.401443333, self.gps.speed = 0.288, self.pitch_angle = 0.0, self.roll_angle = 0.0, self.yaw_angle = 0.0
2024-02-07 21:40:01.980775: test_boat.gps.time='2024-02-07T21:40:01.000Z', self.flap.relative_angle = 124, self.wingsail.absolute_angle = 0.791015625, self.app_wind_magnitude = 0.0, self.app_wind_angle = 293.8416442871094, self.gps.lat = 29.721228333, self.gps.lon = -95.401443333, self.gps.speed = 0.288, self.pitch_angle = 0.0, self.roll_angle = 0.0, self.yaw_angle = 0.0
2024-02-07 21:40:02.089744: test_boat.gps.time='2024-02-07T21:40:01.000Z', self.flap.relative_angle = 124, self.wingsail.absolute_angle = 0.87890625, self.app_wind_magnitude = 0.0, self.app_wind_angle = 294.54547119140625, self.gps.lat = 29.721228333, self.gps.lon = -95.401443333, self.gps.speed = 0.288, self.pitch_angle = 0.0, self.roll_angle = 0.0, self.yaw_angle = 0.0
2024-02-07 21:40:02.196909: test_boat.gps.time='2024-02-07T21:40:01.000Z', self.flap.relative_angle = 124, self.wingsail.absolute_angle = 359.384765625, self.app_wind_magnitude = 0.0, self.app_wind_angle = 293.1378173828125, self.gps.lat = 29.721228333, self.gps.lon = -95.401443333, self.gps.speed = 0.288, self.pitch_angle = 0.0, self.roll_angle = 0.0, self.yaw_angle = 0.0
2024-02-07 21:40:02.304389: test_boat.gps.time='2024-02-07T21:40:01.000Z', self.flap.relative_angle = 124, self.wingsail.absolute_angle = 2.900390625, self.app_wind_magnitude = 0.0, self.app_wind_angle = 294.54547119140625, self.gps.lat = 29.721228333, self.gps.lon = -95.401443333, self.gps.speed = 0.288, self.pitch_angle = 0.0, self.roll_angle = 0.0, self.yaw_angle = 0.0
2024-02-07 21:40:02.413540: test_boat.gps.time='2024-02-07T21:40:01.000Z', self.flap.relative_angle = 124, self.wingsail.absolute_angle = 3.8671875, self.app_wind_magnitude = 0.0, self.app_wind_angle = 293.48974609375, self.gps.lat = 29.721228333, self.gps.lon = -95.401443333, self.gps.speed = 0.288, self.pitch_angle = 0.0, self.roll_angle = 0.0, self.yaw_angle = 0.0
2024-02-07 21:40:02.520547: test_boat.gps.time='2024-02-07T21:40:01.000Z', self.flap.relative_angle = 124, self.wingsail.absolute_angle = 355.60546875, self.app_wind_magnitude = 0.0, self.app_wind_angle = 293.8416442871094, self.gps.lat = 29.721228333, self.gps.lon = -95.401443333, self.gps.speed = 0.288, self.pitch_angle = 0.0, self.roll_angle = 0.0, self.yaw_angle = 0.0
2024-02-07 21:40:02.627986: test_boat.gps.time='2024-02-07T21:40:01.000Z', self.flap.relative_angle = 124, self.wingsail.absolute_angle = 359.208984375, self.app_wind_magnitude = 0.0, self.app_wind_angle = 293.48974609375, self.gps.lat = 29.721228333, self.gps.lon = -95.401443333, self.gps.speed = 0.288, self.pitch_angle = 0.0, self.roll_angle = 0.0, self.yaw_angle = 0.0
2024-02-07 21:40:02.736951: test_boat.gps.time='2024-02-07T21:40:01.000Z', self.flap.relative_angle = 124, self.wingsail.absolute_angle = 2.724609375, self.app_wind_magnitude = 0.0, self.app_wind_angle = 294.19354248046875, self.gps.lat = 29.721228333, self.gps.lon = -95.401443333, self.gps.speed = 0.288, self.pitch_angle = 0.0, self.roll_angle = 0.0, self.yaw_angle = 0.0
2024-02-07 21:40:02.844584: test_boat.gps.time='2024-02-07T21:40:02.000Z', self.flap.relative_angle = 124, self.wingsail.absolute_angle = 1.494140625, self.app_wind_magnitude = 0.0, self.app_wind_angle = 293.8416442871094, self.gps.lat = 29.721226667, self.gps.lon = -95.40144, self.gps.speed = 0.293, self.pitch_angle = 0.0, self.roll_angle = 0.0, self.yaw_angle = 0.0
2024-02-07 21:40:02.951366: test_boat.gps.time='2024-02-07T21:40:02.000Z', self.flap.relative_angle = 124, self.wingsail.absolute_angle = 1.845703125, self.app_wind_magnitude = 0.0, self.app_wind_angle = 293.8416442871094, self.gps.lat = 29.721226667, self.gps.lon = -95.40144, self.gps.speed = 0.293, self.pitch_angle = 0.0, self.roll_angle = 0.0, self.yaw_angle = 0.0
2024-02-07 21:40:03.060716: test_boat.gps.time='2024-02-07T21:40:02.000Z', self.flap.relative_angle = 124, self.wingsail.absolute_angle = 358.505859375, self.app_wind_magnitude = 0.0, self.app_wind_angle = 294.19354248046875, self.gps.lat = 29.721226667, self.gps.lon = -95.40144, self.gps.speed = 0.293, self.pitch_angle = 0.0, self.roll_angle = 0.0, self.yaw_angle = 0.0
2024-02-07 21:40:03.167680: test_boat.gps.time='2024-02-07T21:40:02.000Z', self.flap.relative_angle = 124, self.wingsail.absolute_angle = 4.5703125, self.app_wind_magnitude = 0.0, self.app_wind_angle = 293.8416442871094, self.gps.lat = 29.721226667, self.gps.lon = -95.40144, self.gps.speed = 0.293, self.pitch_angle = 0.0, self.roll_angle = 0.0, self.yaw_angle = 0.0
2024-02-07 21:40:03.274972: test_boat.gps.time='2024-02-07T21:40:02.000Z', self.flap.relative_angle = 124, self.wingsail.absolute_angle = 359.6484375, self.app_wind_magnitude = 0.0, self.app_wind_angle = 293.8416442871094, self.gps.lat = 29.721226667, self.gps.lon = -95.40144, self.gps.speed = 0.293, self.pitch_angle = 0.0, self.roll_angle = 0.0, self.yaw_angle = 0.0
2024-02-07 21:40:03.384367: test_boat.gps.time='2024-02-07T21:40:02.000Z', self.flap.relative_angle = 124, self.wingsail.absolute_angle = 356.044921875, self.app_wind_magnitude = 0.0, self.app_wind_angle = 293.48974609375, self.gps.lat = 29.721226667, self.gps.lon = -95.40144, self.gps.speed = 0.293, self.pitch_angle = 0.0, self.roll_angle = 0.0, self.yaw_angle = 0.0
2024-02-07 21:40:03.491332: test_boat.gps.time='2024-02-07T21:40:02.000Z', self.flap.relative_angle = 124, self.wingsail.absolute_angle = 354.638671875, self.app_wind_magnitude = 0.0, self.app_wind_angle = 294.19354248046875, self.gps.lat = 29.721226667, self.gps.lon = -95.40144, self.gps.speed = 0.293, self.pitch_angle = 0.0, self.roll_angle = 0.0, self.yaw_angle = 0.0
2024-02-07 21:40:03.598746: test_boat.gps.time='2024-02-07T21:40:02.000Z', self.flap.relative_angle = 124, self.wingsail.absolute_angle = 355.95703125, self.app_wind_magnitude = 0.0, self.app_wind_angle = 293.8416442871094, self.gps.lat = 29.721226667, self.gps.lon = -95.40144, self.gps.speed = 0.293, self.pitch_angle = 0.0, self.roll_angle = 0.0, self.yaw_angle = 0.0
2024-02-07 21:40:03.707901: test_boat.gps.time='2024-02-07T21:40:02.000Z', self.flap.relative_angle = 124, self.wingsail.absolute_angle = 354.55078125, self.app_wind_magnitude = 0.0, self.app_wind_angle = 293.8416442871094, self.gps.lat = 29.721226667, self.gps.lon = -95.40144, self.gps.speed = 0.293, self.pitch_angle = 0.0, self.roll_angle = 0.0, self.yaw_angle = 0.0
2024-02-07 21:40:03.815240: test_boat.gps.time='2024-02-07T21:40:02.000Z', self.flap.relative_angle = 124, self.wingsail.absolute_angle = 356.572265625, self.app_wind_magnitude = 0.0, self.app_wind_angle = 294.19354248046875, self.gps.lat = 29.721226667, self.gps.lon = -95.40144, self.gps.speed = 0.293, self.pitch_angle = 0.0, self.roll_angle = 0.0, self.yaw_angle = 0.0
2024-02-07 21:40:03.923319: test_boat.gps.time='2024-02-07T21:40:03.000Z', self.flap.relative_angle = 124, self.wingsail.absolute_angle = 0.87890625, self.app_wind_magnitude = 0.0, self.app_wind_angle = 293.48974609375, self.gps.lat = 29.721225, self.gps.lon = -95.401438333, self.gps.speed = 0.021, self.pitch_angle = 0.0, self.roll_angle = 0.0, self.yaw_angle = 0.0
2024-02-07 21:40:04.031304: test_boat.gps.time='2024-02-07T21:40:03.000Z', self.flap.relative_angle = 124, self.wingsail.absolute_angle = 357.5390625, self.app_wind_magnitude = 0.0, self.app_wind_angle = 293.48974609375, self.gps.lat = 29.721225, self.gps.lon = -95.401438333, self.gps.speed = 0.021, self.pitch_angle = 0.0, self.roll_angle = 0.0, self.yaw_angle = 0.0
2024-02-07 21:40:04.138330: test_boat.gps.time='2024-02-07T21:40:03.000Z', self.flap.relative_angle = 124, self.wingsail.absolute_angle = 4.5703125, self.app_wind_magnitude = 0.0, self.app_wind_angle = 293.1378173828125, self.gps.lat = 29.721225, self.gps.lon = -95.401438333, self.gps.speed = 0.021, self.pitch_angle = 0.0, self.roll_angle = 0.0, self.yaw_angle = 0.0
2024-02-07 21:40:04.246019: test_boat.gps.time='2024-02-07T21:40:03.000Z', self.flap.relative_angle = 124, self.wingsail.absolute_angle = 0.087890625, self.app_wind_magnitude = 0.0, self.app_wind_angle = 293.8416442871094, self.gps.lat = 29.721225, self.gps.lon = -95.401438333, self.gps.speed = 0.021, self.pitch_angle = 0.0, self.roll_angle = 0.0, self.yaw_angle = 0.0
2024-02-07 21:40:04.354893: test_boat.gps.time='2024-02-07T21:40:03.000Z', self.flap.relative_angle = 124, self.wingsail.absolute_angle = 357.451171875, self.app_wind_magnitude = 0.0, self.app_wind_angle = 294.19354248046875, self.gps.lat = 29.721225, self.gps.lon = -95.401438333, self.gps.speed = 0.021, self.pitch_angle = 0.0, self.roll_angle = 0.0, self.yaw_angle = 0.0
2024-02-07 21:40:04.462035: test_boat.gps.time='2024-02-07T21:40:03.000Z', self.flap.relative_angle = 124, self.wingsail.absolute_angle = 355.693359375, self.app_wind_magnitude = 0.0, self.app_wind_angle = 294.19354248046875, self.gps.lat = 29.721225, self.gps.lon = -95.401438333, self.gps.speed = 0.021, self.pitch_angle = 0.0, self.roll_angle = 0.0, self.yaw_angle = 0.0
2024-02-07 21:40:04.569514: test_boat.gps.time='2024-02-07T21:40:03.000Z', self.flap.relative_angle = 124, self.wingsail.absolute_angle = 356.044921875, self.app_wind_magnitude = 0.0, self.app_wind_angle = 294.54547119140625, self.gps.lat = 29.721225, self.gps.lon = -95.401438333, self.gps.speed = 0.021, self.pitch_angle = 0.0, self.roll_angle = 0.0, self.yaw_angle = 0.0
2024-02-07 21:40:04.678604: test_boat.gps.time='2024-02-07T21:40:03.000Z', self.flap.relative_angle = 124, self.wingsail.absolute_angle = 344.091796875, self.app_wind_magnitude = 0.0, self.app_wind_angle = 293.1378173828125, self.gps.lat = 29.721225, self.gps.lon = -95.401438333, self.gps.speed = 0.021, self.pitch_angle = 0.0, self.roll_angle = 0.0, self.yaw_angle = 0.0
2024-02-07 21:40:04.785511: test_boat.gps.time='2024-02-07T21:40:03.000Z', self.flap.relative_angle = 124, self.wingsail.absolute_angle = 1.845703125, self.app_wind_magnitude = 0.0, self.app_wind_angle = 293.48974609375, self.gps.lat = 29.721225, self.gps.lon = -95.401438333, self.gps.speed = 0.021, self.pitch_angle = 0.0, self.roll_angle = 0.0, self.yaw_angle = 0.0
2024-02-07 21:40:04.893012: test_boat.gps.time='2024-02-07T21:40:03.000Z', self.flap.relative_angle = 124, self.wingsail.absolute_angle = 357.451171875, self.app_wind_magnitude = 0.0, self.app_wind_angle = 293.48974609375, self.gps.lat = 29.721225, self.gps.lon = -95.401438333, self.gps.speed = 0.021, self.pitch_angle = 0.0, self.roll_angle = 0.0, self.yaw_angle = 0.0
2024-02-07 21:40:05.002968: test_boat.gps.time='2024-02-07T21:40:04.000Z', self.flap.relative_angle = 124, self.wingsail.absolute_angle = 355.693359375, self.app_wind_magnitude = 0.0, self.app_wind_angle = 294.19354248046875, self.gps.lat = 29.721225, self.gps.lon = -95.401438333, self.gps.speed = 0.478, self.pitch_angle = 0.0, self.roll_angle = 0.0, self.yaw_angle = 0.0
2024-02-07 21:40:05.109622: test_boat.gps.time='2024-02-07T21:40:04.000Z', self.flap.relative_angle = 124, self.wingsail.absolute_angle = 355.166015625, self.app_wind_magnitude = 0.0, self.app_wind_angle = 293.8416442871094, self.gps.lat = 29.721225, self.gps.lon = -95.401438333, self.gps.speed = 0.478, self.pitch_angle = 0.0, self.roll_angle = 0.0, self.yaw_angle = 0.0
2024-02-07 21:40:05.216612: test_boat.gps.time='2024-02-07T21:40:04.000Z', self.flap.relative_angle = 124, self.wingsail.absolute_angle = 3.955078125, self.app_wind_magnitude = 0.0, self.app_wind_angle = 293.8416442871094, self.gps.lat = 29.721225, self.gps.lon = -95.401438333, self.gps.speed = 0.478, self.pitch_angle = 0.0, self.roll_angle = 0.0, self.yaw_angle = 0.0
2024-02-07 21:40:05.325944: test_boat.gps.time='2024-02-07T21:40:04.000Z', self.flap.relative_angle = 124, self.wingsail.absolute_angle = 0.263671875, self.app_wind_magnitude = 0.0, self.app_wind_angle = 293.48974609375, self.gps.lat = 29.721225, self.gps.lon = -95.401438333, self.gps.speed = 0.478, self.pitch_angle = 0.0, self.roll_angle = 0.0, self.yaw_angle = 0.0
2024-02-07 21:40:05.433276: test_boat.gps.time='2024-02-07T21:40:04.000Z', self.flap.relative_angle = 124, self.wingsail.absolute_angle = 358.330078125, self.app_wind_magnitude = 0.0, self.app_wind_angle = 293.8416442871094, self.gps.lat = 29.721225, self.gps.lon = -95.401438333, self.gps.speed = 0.478, self.pitch_angle = 0.0, self.roll_angle = 0.0, self.yaw_angle = 0.0
2024-02-07 21:40:05.540273: test_boat.gps.time='2024-02-07T21:40:04.000Z', self.flap.relative_angle = 124, self.wingsail.absolute_angle = 0.966796875, self.app_wind_magnitude = 0.0, self.app_wind_angle = 293.48974609375, self.gps.lat = 29.721225, self.gps.lon = -95.401438333, self.gps.speed = 0.478, self.pitch_angle = 0.0, self.roll_angle = 0.0, self.yaw_angle = 0.0
2024-02-07 21:40:05.649569: test_boat.gps.time='2024-02-07T21:40:04.000Z', self.flap.relative_angle = 124, self.wingsail.absolute_angle = 4.5703125, self.app_wind_magnitude = 0.0, self.app_wind_angle = 293.8416442871094, self.gps.lat = 29.721225, self.gps.lon = -95.401438333, self.gps.speed = 0.478, self.pitch_angle = 0.0, self.roll_angle = 0.0, self.yaw_angle = 0.0
2024-02-07 21:40:05.756676: test_boat.gps.time='2024-02-07T21:40:04.000Z', self.flap.relative_angle = 124, self.wingsail.absolute_angle = 359.6484375, self.app_wind_magnitude = 0.0, self.app_wind_angle = 294.19354248046875, self.gps.lat = 29.721225, self.gps.lon = -95.401438333, self.gps.speed = 0.478, self.pitch_angle = 0.0, self.roll_angle = 0.0, self.yaw_angle = 0.0
2024-02-07 21:40:05.863808: test_boat.gps.time='2024-02-07T21:40:04.000Z', self.flap.relative_angle = 124, self.wingsail.absolute_angle = 358.505859375, self.app_wind_magnitude = 0.0, self.app_wind_angle = 293.8416442871094, self.gps.lat = 29.721225, self.gps.lon = -95.401438333, self.gps.speed = 0.478, self.pitch_angle = 0.0, self.roll_angle = 0.0, self.yaw_angle = 0.0
2024-02-07 21:40:05.973129: test_boat.gps.time='2024-02-07T21:40:04.000Z', self.flap.relative_angle = 124, self.wingsail.absolute_angle = 356.484375, self.app_wind_magnitude = 0.0, self.app_wind_angle = 293.8416442871094, self.gps.lat = 29.721225, self.gps.lon = -95.401438333, self.gps.speed = 0.478, self.pitch_angle = 0.0, self.roll_angle = 0.0, self.yaw_angle = 0.0
2024-02-07 21:40:06.081035: test_boat.gps.time='2024-02-07T21:40:05.000Z', self.flap.relative_angle = 124, self.wingsail.absolute_angle = 359.82421875, self.app_wind_magnitude = 0.0, self.app_wind_angle = 293.1378173828125, self.gps.lat = 29.721221667, self.gps.lon = -95.40142, self.gps.speed = 0.437, self.pitch_angle = 0.0, self.roll_angle = 0.0, self.yaw_angle = 0.0
2024-02-07 21:40:06.189391: test_boat.gps.time='2024-02-07T21:40:05.000Z', self.flap.relative_angle = 124, self.wingsail.absolute_angle = 359.736328125, self.app_wind_magnitude = 0.0, self.app_wind_angle = 293.8416442871094, self.gps.lat = 29.721221667, self.gps.lon = -95.40142, self.gps.speed = 0.437, self.pitch_angle = 0.0, self.roll_angle = 0.0, self.yaw_angle = 0.0
2024-02-07 21:40:06.296642: test_boat.gps.time='2024-02-07T21:40:05.000Z', self.flap.relative_angle = 124, self.wingsail.absolute_angle = 357.451171875, self.app_wind_magnitude = 0.0, self.app_wind_angle = 293.1378173828125, self.gps.lat = 29.721221667, self.gps.lon = -95.40142, self.gps.speed = 0.437, self.pitch_angle = 0.0, self.roll_angle = 0.0, self.yaw_angle = 0.0
2024-02-07 21:40:06.403340: test_boat.gps.time='2024-02-07T21:40:05.000Z', self.flap.relative_angle = 124, self.wingsail.absolute_angle = 2.021484375, self.app_wind_magnitude = 0.0, self.app_wind_angle = 291.3782958984375, self.gps.lat = 29.721221667, self.gps.lon = -95.40142, self.gps.speed = 0.437, self.pitch_angle = 0.0, self.roll_angle = 0.0, self.yaw_angle = 0.0
2024-02-07 21:40:06.513022: test_boat.gps.time='2024-02-07T21:40:05.000Z', self.flap.relative_angle = 124, self.wingsail.absolute_angle = 355.78125, self.app_wind_magnitude = 0.0, self.app_wind_angle = 293.8416442871094, self.gps.lat = 29.721221667, self.gps.lon = -95.40142, self.gps.speed = 0.437, self.pitch_angle = 0.0, self.roll_angle = 0.0, self.yaw_angle = 0.0
