2024-02-08 20:34:50.393727: self.boat.gps.time='2024-02-08T20:34:50.000Z', self.flap.relative_angle = 124, self.wingsail.absolute_angle = 0.17578125, self.app_wind_magnitude = 0.0, self.app_wind_angle = 120.70379638671875, self.gps.lat = 29.72086, self.gps.lon = -95.401868333, self.gps.speed = 0.005, self.pitch_angle = 0.0, self.roll_angle = 0.0, self.yaw_angle = 0.0
2024-02-08 20:34:50.492244: self.boat.gps.time='2024-02-08T20:34:50.000Z', self.flap.relative_angle = 124, self.wingsail.absolute_angle = 359.912109375, self.app_wind_magnitude = 0.0, self.app_wind_angle = 120.70379638671875, self.gps.lat = 29.72086, self.gps.lon = -95.401868333, self.gps.speed = 0.005, self.pitch_angle = 0.0, self.roll_angle = 0.0, self.yaw_angle = 0.0
2024-02-08 20:34:50.590677: self.boat.gps.time='2024-02-08T20:34:50.000Z', self.flap.relative_angle = 124, self.wingsail.absolute_angle = 359.82421875, self.app_wind_magnitude = 0.0, self.app_wind_angle = 114.01759338378906, self.gps.lat = 29.72086, self.gps.lon = -95.401868333, self.gps.speed = 0.005, self.pitch_angle = 0.0, self.roll_angle = 0.0, self.yaw_angle = 0.0
2024-02-08 20:34:50.689126: self.boat.gps.time='2024-02-08T20:34:50.000Z', self.flap.relative_angle = 124, self.wingsail.absolute_angle = 359.47265625, self.app_wind_magnitude = 0.0, self.app_wind_angle = 112.96186828613281, self.gps.lat = 29.72086, self.gps.lon = -95.401868333, self.gps.speed = 0.005, self.pitch_angle = 0.0, self.roll_angle = 0.0, self.yaw_angle = 0.0
2024-02-08 20:34:50.787613: self.boat.gps.time='2024-02-08T20:34:50.000Z', self.flap.relative_angle = 124, self.wingsail.absolute_angle = 359.384765625, self.app_wind_magnitude = 0.0, self.app_wind_angle = 114.01759338378906, self.gps.lat = 29.72086, self.gps.lon = -95.401868333, self.gps.speed = 0.005, self.pitch_angle = 0.0, self.roll_angle = 0.0, self.yaw_angle = 0.0
2024-02-08 20:34:50.885859: self.boat.gps.time='2024-02-08T20:34:50.000Z', self.flap.relative_angle = 124, self.wingsail.absolute_angle = 359.736328125, self.app_wind_magnitude = 0.0, self.app_wind_angle = 113.66567993164062, self.gps.lat = 29.72086, self.gps.lon = -95.401868333, self.gps.speed = 0.005, self.pitch_angle = 0.0, self.roll_angle = 0.0, self.yaw_angle = 0.0
2024-02-08 20:34:50.984237: self.boat.gps.time='2024-02-08T20:34:50.000Z', self.flap.relative_angle = 124, self.wingsail.absolute_angle = 359.6484375, self.app_wind_magnitude = 0.0, self.app_wind_angle = 114.01759338378906, self.gps.lat = 29.72086, self.gps.lon = -95.401868333, self.gps.speed = 0.005, self.pitch_angle = 0.0, self.roll_angle = 0.0, self.yaw_angle = 0.0
2024-02-08 20:34:51.082579: self.boat.gps.time='2024-02-08T20:34:50.000Z', self.flap.relative_angle = 124, self.wingsail.absolute_angle = 360.0, self.app_wind_magnitude = 0.0, self.app_wind_angle = 113.31378173828125, self.gps.lat = 29.72086, self.gps.lon = -95.401868333, self.gps.speed = 0.005, self.pitch_angle = 0.0, self.roll_angle = 0.0, self.yaw_angle = 0.0
2024-02-08 20:34:51.177921: self.boat.gps.time='2024-02-08T20:34:50.000Z', self.flap.relative_angle = 124, self.wingsail.absolute_angle = 359.47265625, self.app_wind_magnitude = 0.0, self.app_wind_angle = 113.31378173828125, self.gps.lat = 29.72086, self.gps.lon = -95.401868333, self.gps.speed = 0.005, self.pitch_angle = 0.0, self.roll_angle = 0.0, self.yaw_angle = 0.0
2024-02-08 20:34:51.276192: self.boat.gps.time='2024-02-08T20:34:50.000Z', self.flap.relative_angle = 124, self.wingsail.absolute_angle = 0.3515625, self.app_wind_magnitude = 0.0, self.app_wind_angle = 116.1290283203125, self.gps.lat = 29.72086, self.gps.lon = -95.401868333, self.gps.speed = 0.005, self.pitch_angle = 0.0, self.roll_angle = 0.0, self.yaw_angle = 0.0
2024-02-08 20:34:51.374516: self.boat.gps.time='2024-02-08T20:34:50.000Z', self.flap.relative_angle = 124, self.wingsail.absolute_angle = 359.384765625, self.app_wind_magnitude = 0.0, self.app_wind_angle = 116.1290283203125, self.gps.lat = 29.72086, self.gps.lon = -95.401868333, self.gps.speed = 0.005, self.pitch_angle = 0.0, self.roll_angle = 0.0, self.yaw_angle = 0.0
2024-02-08 20:34:51.473608: self.boat.gps.time='2024-02-08T20:34:51.000Z', self.flap.relative_angle = 124, self.wingsail.absolute_angle = 359.47265625, self.app_wind_magnitude = 0.0, self.app_wind_angle = 116.1290283203125, self.gps.lat = 29.72086, self.gps.lon = -95.401868333, self.gps.speed = 0.057, self.pitch_angle = 0.0, self.roll_angle = 0.0, self.yaw_angle = 0.0
2024-02-08 20:34:51.572021: self.boat.gps.time='2024-02-08T20:34:51.000Z', self.flap.relative_angle = 124, self.wingsail.absolute_angle = 359.033203125, self.app_wind_magnitude = 0.0, self.app_wind_angle = 116.1290283203125, self.gps.lat = 29.72086, self.gps.lon = -95.401868333, self.gps.speed = 0.057, self.pitch_angle = 0.0, self.roll_angle = 0.0, self.yaw_angle = 0.0
2024-02-08 20:34:51.670432: self.boat.gps.time='2024-02-08T20:34:51.000Z', self.flap.relative_angle = 124, self.wingsail.absolute_angle = 358.154296875, self.app_wind_magnitude = 0.0, self.app_wind_angle = 116.1290283203125, self.gps.lat = 29.72086, self.gps.lon = -95.401868333, self.gps.speed = 0.057, self.pitch_angle = 0.0, self.roll_angle = 0.0, self.yaw_angle = 0.0
2024-02-08 20:34:51.768771: self.boat.gps.time='2024-02-08T20:34:51.000Z', self.flap.relative_angle = 124, self.wingsail.absolute_angle = 358.2421875, self.app_wind_magnitude = 0.0, self.app_wind_angle = 115.77711486816406, self.gps.lat = 29.72086, self.gps.lon = -95.401868333, self.gps.speed = 0.057, self.pitch_angle = 0.0, self.roll_angle = 0.0, self.yaw_angle = 0.0
2024-02-08 20:34:51.866935: self.boat.gps.time='2024-02-08T20:34:51.000Z', self.flap.relative_angle = 124, self.wingsail.absolute_angle = 357.451171875, self.app_wind_magnitude = 0.0, self.app_wind_angle = 116.1290283203125, self.gps.lat = 29.72086, self.gps.lon = -95.401868333, self.gps.speed = 0.057, self.pitch_angle = 0.0, self.roll_angle = 0.0, self.yaw_angle = 0.0
2024-02-08 20:34:51.965213: self.boat.gps.time='2024-02-08T20:34:51.000Z', self.flap.relative_angle = 124, self.wingsail.absolute_angle = 357.71484375, self.app_wind_magnitude = 0.0, self.app_wind_angle = 116.1290283203125, self.gps.lat = 29.72086, self.gps.lon = -95.401868333, self.gps.speed = 0.057, self.pitch_angle = 0.0, self.roll_angle = 0.0, self.yaw_angle = 0.0
2024-02-08 20:34:52.063222: self.boat.gps.time='2024-02-08T20:34:51.000Z', self.flap.relative_angle = 124, self.wingsail.absolute_angle = 357.36328125, self.app_wind_magnitude = 0.0, self.app_wind_angle = 116.1290283203125, self.gps.lat = 29.72086, self.gps.lon = -95.401868333, self.gps.speed = 0.057, self.pitch_angle = 0.0, self.roll_angle = 0.0, self.yaw_angle = 0.0
2024-02-08 20:34:52.159080: self.boat.gps.time='2024-02-08T20:34:51.000Z', self.flap.relative_angle = 124, self.wingsail.absolute_angle = 357.01171875, self.app_wind_magnitude = 0.0, self.app_wind_angle = 116.1290283203125, self.gps.lat = 29.72086, self.gps.lon = -95.401868333, self.gps.speed = 0.057, self.pitch_angle = 0.0, self.roll_angle = 0.0, self.yaw_angle = 0.0
2024-02-08 20:34:52.257380: self.boat.gps.time='2024-02-08T20:34:51.000Z', self.flap.relative_angle = 124, self.wingsail.absolute_angle = 357.099609375, self.app_wind_magnitude = 0.0, self.app_wind_angle = 116.1290283203125, self.gps.lat = 29.72086, self.gps.lon = -95.401868333, self.gps.speed = 0.057, self.pitch_angle = 0.0, self.roll_angle = 0.0, self.yaw_angle = 0.0
2024-02-08 20:34:52.355712: self.boat.gps.time='2024-02-08T20:34:51.000Z', self.flap.relative_angle = 124, self.wingsail.absolute_angle = 356.8359375, self.app_wind_magnitude = 0.0, self.app_wind_angle = 116.1290283203125, self.gps.lat = 29.72086, self.gps.lon = -95.401868333, self.gps.speed = 0.057, self.pitch_angle = 0.0, self.roll_angle = 0.0, self.yaw_angle = 0.0
2024-02-08 20:34:52.454035: self.boat.gps.time='2024-02-08T20:34:51.000Z', self.flap.relative_angle = 124, self.wingsail.absolute_angle = 357.36328125, self.app_wind_magnitude = 0.0, self.app_wind_angle = 116.1290283203125, self.gps.lat = 29.72086, self.gps.lon = -95.401868333, self.gps.speed = 0.057, self.pitch_angle = 0.0, self.roll_angle = 0.0, self.yaw_angle = 0.0
2024-02-08 20:34:52.553033: self.boat.gps.time='2024-02-08T20:34:52.000Z', self.flap.relative_angle = 124, self.wingsail.absolute_angle = 356.923828125, self.app_wind_magnitude = 0.0, self.app_wind_angle = 116.1290283203125, self.gps.lat = 29.72086, self.gps.lon = -95.401868333, self.gps.speed = 0.35, self.pitch_angle = 0.0, self.roll_angle = 0.0, self.yaw_angle = 0.0
2024-02-08 20:34:52.649022: self.boat.gps.time='2024-02-08T20:34:52.000Z', self.flap.relative_angle = 124, self.wingsail.absolute_angle = 357.01171875, self.app_wind_magnitude = 0.0, self.app_wind_angle = 115.77711486816406, self.gps.lat = 29.72086, self.gps.lon = -95.401868333, self.gps.speed = 0.35, self.pitch_angle = 0.0, self.roll_angle = 0.0, self.yaw_angle = 0.0
2024-02-08 20:34:52.742821: self.boat.gps.time='2024-02-08T20:34:52.000Z', self.flap.relative_angle = 124, self.wingsail.absolute_angle = 356.8359375, self.app_wind_magnitude = 0.0, self.app_wind_angle = 116.1290283203125, self.gps.lat = 29.72086, self.gps.lon = -95.401868333, self.gps.speed = 0.35, self.pitch_angle = 0.0, self.roll_angle = 0.0, self.yaw_angle = 0.0
2024-02-08 20:34:52.841206: self.boat.gps.time='2024-02-08T20:34:52.000Z', self.flap.relative_angle = 124, self.wingsail.absolute_angle = 356.572265625, self.app_wind_magnitude = 0.0, self.app_wind_angle = 116.48092651367188, self.gps.lat = 29.72086, self.gps.lon = -95.401868333, self.gps.speed = 0.35, self.pitch_angle = 0.0, self.roll_angle = 0.0, self.yaw_angle = 0.0
2024-02-08 20:34:52.939484: self.boat.gps.time='2024-02-08T20:34:52.000Z', self.flap.relative_angle = 124, self.wingsail.absolute_angle = 357.451171875, self.app_wind_magnitude = 0.0, self.app_wind_angle = 116.48092651367188, self.gps.lat = 29.72086, self.gps.lon = -95.401868333, self.gps.speed = 0.35, self.pitch_angle = 0.0, self.roll_angle = 0.0, self.yaw_angle = 0.0
2024-02-08 20:34:53.037759: self.boat.gps.time='2024-02-08T20:34:52.000Z', self.flap.relative_angle = 124, self.wingsail.absolute_angle = 357.802734375, self.app_wind_magnitude = 0.0, self.app_wind_angle = 116.48092651367188, self.gps.lat = 29.72086, self.gps.lon = -95.401868333, self.gps.speed = 0.35, self.pitch_angle = 0.0, self.roll_angle = 0.0, self.yaw_angle = 0.0
2024-02-08 20:34:53.135967: self.boat.gps.time='2024-02-08T20:34:52.000Z', self.flap.relative_angle = 124, self.wingsail.absolute_angle = 357.802734375, self.app_wind_magnitude = 0.0, self.app_wind_angle = 116.83283996582031, self.gps.lat = 29.72086, self.gps.lon = -95.401868333, self.gps.speed = 0.35, self.pitch_angle = 0.0, self.roll_angle = 0.0, self.yaw_angle = 0.0
2024-02-08 20:34:53.234302: self.boat.gps.time='2024-02-08T20:34:52.000Z', self.flap.relative_angle = 124, self.wingsail.absolute_angle = 357.978515625, self.app_wind_magnitude = 0.0, self.app_wind_angle = 116.48092651367188, self.gps.lat = 29.72086, self.gps.lon = -95.401868333, self.gps.speed = 0.35, self.pitch_angle = 0.0, self.roll_angle = 0.0, self.yaw_angle = 0.0
2024-02-08 20:34:53.332526: self.boat.gps.time='2024-02-08T20:34:52.000Z', self.flap.relative_angle = 124, self.wingsail.absolute_angle = 357.01171875, self.app_wind_magnitude = 0.0, self.app_wind_angle = 116.48092651367188, self.gps.lat = 29.72086, self.gps.lon = -95.401868333, self.gps.speed = 0.35, self.pitch_angle = 0.0, self.roll_angle = 0.0, self.yaw_angle = 0.0
2024-02-08 20:34:53.430801: self.boat.gps.time='2024-02-08T20:34:52.000Z', self.flap.relative_angle = 124, self.wingsail.absolute_angle = 357.5390625, self.app_wind_magnitude = 0.0, self.app_wind_angle = 116.1290283203125, self.gps.lat = 29.72086, self.gps.lon = -95.401868333, self.gps.speed = 0.35, self.pitch_angle = 0.0, self.roll_angle = 0.0, self.yaw_angle = 0.0
2024-02-08 20:34:53.529105: self.boat.gps.time='2024-02-08T20:34:52.000Z', self.flap.relative_angle = 124, self.wingsail.absolute_angle = 356.396484375, self.app_wind_magnitude = 0.0, self.app_wind_angle = 111.90615844726562, self.gps.lat = 29.72086, self.gps.lon = -95.401868333, self.gps.speed = 0.35, self.pitch_angle = 0.0, self.roll_angle = 0.0, self.yaw_angle = 0.0
2024-02-08 20:34:53.640294: self.boat.gps.time='2024-02-08T20:34:53.000Z', self.flap.relative_angle = 124, self.wingsail.absolute_angle = 357.275390625, self.app_wind_magnitude = 0.0, self.app_wind_angle = 113.66567993164062, self.gps.lat = 29.720858333, self.gps.lon = -95.401873333, self.gps.speed = 0.448, self.pitch_angle = 0.0, self.roll_angle = 0.0, self.yaw_angle = 0.0
2024-02-08 20:34:53.738530: self.boat.gps.time='2024-02-08T20:34:53.000Z', self.flap.relative_angle = 124, self.wingsail.absolute_angle = 357.01171875, self.app_wind_magnitude = 0.0, self.app_wind_angle = 113.31378173828125, self.gps.lat = 29.720858333, self.gps.lon = -95.401873333, self.gps.speed = 0.448, self.pitch_angle = 0.0, self.roll_angle = 0.0, self.yaw_angle = 0.0
2024-02-08 20:34:53.837026: self.boat.gps.time='2024-02-08T20:34:53.000Z', self.flap.relative_angle = 124, self.wingsail.absolute_angle = 356.66015625, self.app_wind_magnitude = 0.0, self.app_wind_angle = 113.66567993164062, self.gps.lat = 29.720858333, self.gps.lon = -95.401873333, self.gps.speed = 0.448, self.pitch_angle = 0.0, self.roll_angle = 0.0, self.yaw_angle = 0.0
2024-02-08 20:34:53.935091: self.boat.gps.time='2024-02-08T20:34:53.000Z', self.flap.relative_angle = 124, self.wingsail.absolute_angle = 357.1875, self.app_wind_magnitude = 0.0, self.app_wind_angle = 113.66567993164062, self.gps.lat = 29.720858333, self.gps.lon = -95.401873333, self.gps.speed = 0.448, self.pitch_angle = 0.0, self.roll_angle = 0.0, self.yaw_angle = 0.0
2024-02-08 20:34:54.033247: self.boat.gps.time='2024-02-08T20:34:53.000Z', self.flap.relative_angle = 124, self.wingsail.absolute_angle = 356.1328125, self.app_wind_magnitude = 0.0, self.app_wind_angle = 113.31378173828125, self.gps.lat = 29.720858333, self.gps.lon = -95.401873333, self.gps.speed = 0.448, self.pitch_angle = 0.0, self.roll_angle = 0.0, self.yaw_angle = 0.0
2024-02-08 20:34:54.131432: self.boat.gps.time='2024-02-08T20:34:53.000Z', self.flap.relative_angle = 124, self.wingsail.absolute_angle = 355.95703125, self.app_wind_magnitude = 0.0, self.app_wind_angle = 113.66567993164062, self.gps.lat = 29.720858333, self.gps.lon = -95.401873333, self.gps.speed = 0.448, self.pitch_angle = 0.0, self.roll_angle = 0.0, self.yaw_angle = 0.0
2024-02-08 20:34:54.229968: self.boat.gps.time='2024-02-08T20:34:53.000Z', self.flap.relative_angle = 124, self.wingsail.absolute_angle = 356.30859375, self.app_wind_magnitude = 0.0, self.app_wind_angle = 33.079193115234375, self.gps.lat = 29.720858333, self.gps.lon = -95.401873333, self.gps.speed = 0.448, self.pitch_angle = 0.0, self.roll_angle = 0.0, self.yaw_angle = 0.0
2024-02-08 20:34:54.328181: self.boat.gps.time='2024-02-08T20:34:53.000Z', self.flap.relative_angle = 124, self.wingsail.absolute_angle = 356.923828125, self.app_wind_magnitude = 0.0, self.app_wind_angle = 32.023468017578125, self.gps.lat = 29.720858333, self.gps.lon = -95.401873333, self.gps.speed = 0.448, self.pitch_angle = 0.0, self.roll_angle = 0.0, self.yaw_angle = 0.0
2024-02-08 20:34:54.426425: self.boat.gps.time='2024-02-08T20:34:53.000Z', self.flap.relative_angle = 124, self.wingsail.absolute_angle = 357.1875, self.app_wind_magnitude = 0.0, self.app_wind_angle = 32.023468017578125, self.gps.lat = 29.720858333, self.gps.lon = -95.401873333, self.gps.speed = 0.448, self.pitch_angle = 0.0, self.roll_angle = 0.0, self.yaw_angle = 0.0
2024-02-08 20:34:54.524719: self.boat.gps.time='2024-02-08T20:34:53.000Z', self.flap.relative_angle = 124, self.wingsail.absolute_angle = 357.5390625, self.app_wind_magnitude = 0.0, self.app_wind_angle = 32.023468017578125, self.gps.lat = 29.720858333, self.gps.lon = -95.401873333, self.gps.speed = 0.448, self.pitch_angle = 0.0, self.roll_angle = 0.0, self.yaw_angle = 0.0
2024-02-08 20:34:54.623038: self.boat.gps.time='2024-02-08T20:34:53.000Z', self.flap.relative_angle = 124, self.wingsail.absolute_angle = 357.626953125, self.app_wind_magnitude = 0.0, self.app_wind_angle = 32.023468017578125, self.gps.lat = 29.720858333, self.gps.lon = -95.401873333, self.gps.speed = 0.448, self.pitch_angle = 0.0, self.roll_angle = 0.0, self.yaw_angle = 0.0
2024-02-08 20:34:54.719933: self.boat.gps.time='2024-02-08T20:34:54.000Z', self.flap.relative_angle = 124, self.wingsail.absolute_angle = 356.923828125, self.app_wind_magnitude = 0.0, self.app_wind_angle = 32.3753662109375, self.gps.lat = 29.720856667, self.gps.lon = -95.40188, self.gps.speed = 0.484, self.pitch_angle = 0.0, self.roll_angle = 0.0, self.yaw_angle = 0.0
2024-02-08 20:34:54.818259: self.boat.gps.time='2024-02-08T20:34:54.000Z', self.flap.relative_angle = 124, self.wingsail.absolute_angle = 356.923828125, self.app_wind_magnitude = 0.0, self.app_wind_angle = 30.967742919921875, self.gps.lat = 29.720856667, self.gps.lon = -95.40188, self.gps.speed = 0.484, self.pitch_angle = 0.0, self.roll_angle = 0.0, self.yaw_angle = 0.0
2024-02-08 20:34:54.916877: self.boat.gps.time='2024-02-08T20:34:54.000Z', self.flap.relative_angle = 124, self.wingsail.absolute_angle = 356.572265625, self.app_wind_magnitude = 0.0, self.app_wind_angle = 31.67156982421875, self.gps.lat = 29.720856667, self.gps.lon = -95.40188, self.gps.speed = 0.484, self.pitch_angle = 0.0, self.roll_angle = 0.0, self.yaw_angle = 0.0
2024-02-08 20:34:55.015204: self.boat.gps.time='2024-02-08T20:34:54.000Z', self.flap.relative_angle = 124, self.wingsail.absolute_angle = 357.099609375, self.app_wind_magnitude = 0.0, self.app_wind_angle = 357.5366516113281, self.gps.lat = 29.720856667, self.gps.lon = -95.40188, self.gps.speed = 0.484, self.pitch_angle = 0.0, self.roll_angle = 0.0, self.yaw_angle = 0.0
2024-02-08 20:34:55.113337: self.boat.gps.time='2024-02-08T20:34:54.000Z', self.flap.relative_angle = 124, self.wingsail.absolute_angle = 356.748046875, self.app_wind_magnitude = 0.0, self.app_wind_angle = 358.240478515625, self.gps.lat = 29.720856667, self.gps.lon = -95.40188, self.gps.speed = 0.484, self.pitch_angle = 0.0, self.roll_angle = 0.0, self.yaw_angle = 0.0
2024-02-08 20:34:55.208670: self.boat.gps.time='2024-02-08T20:34:54.000Z', self.flap.relative_angle = 124, self.wingsail.absolute_angle = 356.396484375, self.app_wind_magnitude = 0.0, self.app_wind_angle = 358.240478515625, self.gps.lat = 29.720856667, self.gps.lon = -95.40188, self.gps.speed = 0.484, self.pitch_angle = 0.0, self.roll_angle = 0.0, self.yaw_angle = 0.0
2024-02-08 20:34:55.304998: self.boat.gps.time='2024-02-08T20:34:54.000Z', self.flap.relative_angle = 124, self.wingsail.absolute_angle = 356.8359375, self.app_wind_magnitude = 0.0, self.app_wind_angle = 358.240478515625, self.gps.lat = 29.720856667, self.gps.lon = -95.40188, self.gps.speed = 0.484, self.pitch_angle = 0.0, self.roll_angle = 0.0, self.yaw_angle = 0.0
2024-02-08 20:34:55.403332: self.boat.gps.time='2024-02-08T20:34:54.000Z', self.flap.relative_angle = 124, self.wingsail.absolute_angle = 357.36328125, self.app_wind_magnitude = 0.0, self.app_wind_angle = 358.240478515625, self.gps.lat = 29.720856667, self.gps.lon = -95.40188, self.gps.speed = 0.484, self.pitch_angle = 0.0, self.roll_angle = 0.0, self.yaw_angle = 0.0
2024-02-08 20:34:55.501563: self.boat.gps.time='2024-02-08T20:34:54.000Z', self.flap.relative_angle = 124, self.wingsail.absolute_angle = 357.099609375, self.app_wind_magnitude = 0.0, self.app_wind_angle = 358.5923767089844, self.gps.lat = 29.720856667, self.gps.lon = -95.40188, self.gps.speed = 0.484, self.pitch_angle = 0.0, self.roll_angle = 0.0, self.yaw_angle = 0.0
2024-02-08 20:34:55.599876: self.boat.gps.time='2024-02-08T20:34:54.000Z', self.flap.relative_angle = 124, self.wingsail.absolute_angle = 356.923828125, self.app_wind_magnitude = 0.0, self.app_wind_angle = 358.240478515625, self.gps.lat = 29.720856667, self.gps.lon = -95.40188, self.gps.speed = 0.484, self.pitch_angle = 0.0, self.roll_angle = 0.0, self.yaw_angle = 0.0
2024-02-08 20:34:55.698188: self.boat.gps.time='2024-02-08T20:34:54.000Z', self.flap.relative_angle = 124, self.wingsail.absolute_angle = 357.5390625, self.app_wind_magnitude = 0.0, self.app_wind_angle = 72.49267578125, self.gps.lat = 29.720856667, self.gps.lon = -95.40188, self.gps.speed = 0.484, self.pitch_angle = 0.0, self.roll_angle = 0.0, self.yaw_angle = 0.0
2024-02-08 20:34:55.797172: self.boat.gps.time='2024-02-08T20:34:55.000Z', self.flap.relative_angle = 124, self.wingsail.absolute_angle = 357.71484375, self.app_wind_magnitude = 0.0, self.app_wind_angle = 47.50732421875, self.gps.lat = 29.720855, self.gps.lon = -95.401885, self.gps.speed = 0.648, self.pitch_angle = 0.0, self.roll_angle = 0.0, self.yaw_angle = 0.0
2024-02-08 20:34:55.895391: self.boat.gps.time='2024-02-08T20:34:55.000Z', self.flap.relative_angle = 124, self.wingsail.absolute_angle = 356.8359375, self.app_wind_magnitude = 0.0, self.app_wind_angle = 47.50732421875, self.gps.lat = 29.720855, self.gps.lon = -95.401885, self.gps.speed = 0.648, self.pitch_angle = 0.0, self.roll_angle = 0.0, self.yaw_angle = 0.0
2024-02-08 20:34:55.993613: self.boat.gps.time='2024-02-08T20:34:55.000Z', self.flap.relative_angle = 124, self.wingsail.absolute_angle = 356.572265625, self.app_wind_magnitude = 0.0, self.app_wind_angle = 47.50732421875, self.gps.lat = 29.720855, self.gps.lon = -95.401885, self.gps.speed = 0.648, self.pitch_angle = 0.0, self.roll_angle = 0.0, self.yaw_angle = 0.0
2024-02-08 20:34:56.091802: self.boat.gps.time='2024-02-08T20:34:55.000Z', self.flap.relative_angle = 124, self.wingsail.absolute_angle = 356.8359375, self.app_wind_magnitude = 0.0, self.app_wind_angle = 47.859222412109375, self.gps.lat = 29.720855, self.gps.lon = -95.401885, self.gps.speed = 0.648, self.pitch_angle = 0.0, self.roll_angle = 0.0, self.yaw_angle = 0.0
2024-02-08 20:34:56.190108: self.boat.gps.time='2024-02-08T20:34:55.000Z', self.flap.relative_angle = 124, self.wingsail.absolute_angle = 357.099609375, self.app_wind_magnitude = 0.0, self.app_wind_angle = 47.859222412109375, self.gps.lat = 29.720855, self.gps.lon = -95.401885, self.gps.speed = 0.648, self.pitch_angle = 0.0, self.roll_angle = 0.0, self.yaw_angle = 0.0
2024-02-08 20:34:56.288347: self.boat.gps.time='2024-02-08T20:34:55.000Z', self.flap.relative_angle = 124, self.wingsail.absolute_angle = 356.923828125, self.app_wind_magnitude = 0.0, self.app_wind_angle = 47.50732421875, self.gps.lat = 29.720855, self.gps.lon = -95.401885, self.gps.speed = 0.648, self.pitch_angle = 0.0, self.roll_angle = 0.0, self.yaw_angle = 0.0
2024-02-08 20:34:56.386563: self.boat.gps.time='2024-02-08T20:34:55.000Z', self.flap.relative_angle = 124, self.wingsail.absolute_angle = 357.01171875, self.app_wind_magnitude = 0.0, self.app_wind_angle = 52.785919189453125, self.gps.lat = 29.720855, self.gps.lon = -95.401885, self.gps.speed = 0.648, self.pitch_angle = 0.0, self.roll_angle = 0.0, self.yaw_angle = 0.0
2024-02-08 20:34:56.484866: self.boat.gps.time='2024-02-08T20:34:55.000Z', self.flap.relative_angle = 124, self.wingsail.absolute_angle = 356.923828125, self.app_wind_magnitude = 0.0, self.app_wind_angle = 55.95306396484375, self.gps.lat = 29.720855, self.gps.lon = -95.401885, self.gps.speed = 0.648, self.pitch_angle = 0.0, self.roll_angle = 0.0, self.yaw_angle = 0.0
2024-02-08 20:34:56.583096: self.boat.gps.time='2024-02-08T20:34:55.000Z', self.flap.relative_angle = 124, self.wingsail.absolute_angle = 357.451171875, self.app_wind_magnitude = 0.0, self.app_wind_angle = 55.95306396484375, self.gps.lat = 29.720855, self.gps.lon = -95.401885, self.gps.speed = 0.648, self.pitch_angle = 0.0, self.roll_angle = 0.0, self.yaw_angle = 0.0
2024-02-08 20:34:56.681316: self.boat.gps.time='2024-02-08T20:34:55.000Z', self.flap.relative_angle = 124, self.wingsail.absolute_angle = 357.01171875, self.app_wind_magnitude = 0.0, self.app_wind_angle = 55.95306396484375, self.gps.lat = 29.720855, self.gps.lon = -95.401885, self.gps.speed = 0.648, self.pitch_angle = 0.0, self.roll_angle = 0.0, self.yaw_angle = 0.0
2024-02-08 20:34:56.779587: self.boat.gps.time='2024-02-08T20:34:55.000Z', self.flap.relative_angle = 124, self.wingsail.absolute_angle = 357.275390625, self.app_wind_magnitude = 0.0, self.app_wind_angle = 55.95306396484375, self.gps.lat = 29.720855, self.gps.lon = -95.401885, self.gps.speed = 0.648, self.pitch_angle = 0.0, self.roll_angle = 0.0, self.yaw_angle = 0.0
2024-02-08 20:34:56.877919: self.boat.gps.time='2024-02-08T20:34:56.000Z', self.flap.relative_angle = 124, self.wingsail.absolute_angle = 356.572265625, self.app_wind_magnitude = 0.0, self.app_wind_angle = 55.601165771484375, self.gps.lat = 29.720851667, self.gps.lon = -95.401893333, self.gps.speed = 0.741, self.pitch_angle = 0.0, self.roll_angle = 0.0, self.yaw_angle = 0.0
2024-02-08 20:34:56.976054: self.boat.gps.time='2024-02-08T20:34:56.000Z', self.flap.relative_angle = 124, self.wingsail.absolute_angle = 356.396484375, self.app_wind_magnitude = 0.0, self.app_wind_angle = 55.601165771484375, self.gps.lat = 29.720851667, self.gps.lon = -95.401893333, self.gps.speed = 0.741, self.pitch_angle = 0.0, self.roll_angle = 0.0, self.yaw_angle = 0.0
2024-02-08 20:34:57.074286: self.boat.gps.time='2024-02-08T20:34:56.000Z', self.flap.relative_angle = 124, self.wingsail.absolute_angle = 357.1875, self.app_wind_magnitude = 0.0, self.app_wind_angle = 55.95306396484375, self.gps.lat = 29.720851667, self.gps.lon = -95.401893333, self.gps.speed = 0.741, self.pitch_angle = 0.0, self.roll_angle = 0.0, self.yaw_angle = 0.0
2024-02-08 20:34:57.170733: self.boat.gps.time='2024-02-08T20:34:56.000Z', self.flap.relative_angle = 124, self.wingsail.absolute_angle = 357.275390625, self.app_wind_magnitude = 0.0, self.app_wind_angle = 32.3753662109375, self.gps.lat = 29.720851667, self.gps.lon = -95.401893333, self.gps.speed = 0.741, self.pitch_angle = 0.0, self.roll_angle = 0.0, self.yaw_angle = 0.0
2024-02-08 20:34:57.269083: self.boat.gps.time='2024-02-08T20:34:56.000Z', self.flap.relative_angle = 124, self.wingsail.absolute_angle = 357.626953125, self.app_wind_magnitude = 0.0, self.app_wind_angle = 35.894439697265625, self.gps.lat = 29.720851667, self.gps.lon = -95.401893333, self.gps.speed = 0.741, self.pitch_angle = 0.0, self.roll_angle = 0.0, self.yaw_angle = 0.0
2024-02-08 20:34:57.367633: self.boat.gps.time='2024-02-08T20:34:56.000Z', self.flap.relative_angle = 124, self.wingsail.absolute_angle = 357.275390625, self.app_wind_magnitude = 0.30791789293289185, self.app_wind_angle = 36.246337890625, self.gps.lat = 29.720851667, self.gps.lon = -95.401893333, self.gps.speed = 0.741, self.pitch_angle = 0.0, self.roll_angle = 0.0, self.yaw_angle = 0.0
2024-02-08 20:34:57.464993: self.boat.gps.time='2024-02-08T20:34:56.000Z', self.flap.relative_angle = 124, self.wingsail.absolute_angle = 356.923828125, self.app_wind_magnitude = 0.30791789293289185, self.app_wind_angle = 35.894439697265625, self.gps.lat = 29.720851667, self.gps.lon = -95.401893333, self.gps.speed = 0.741, self.pitch_angle = 0.0, self.roll_angle = 0.0, self.yaw_angle = 0.0
2024-02-08 20:34:57.563246: self.boat.gps.time='2024-02-08T20:34:56.000Z', self.flap.relative_angle = 124, self.wingsail.absolute_angle = 357.1875, self.app_wind_magnitude = 0.3519061505794525, self.app_wind_angle = 34.838714599609375, self.gps.lat = 29.720851667, self.gps.lon = -95.401893333, self.gps.speed = 0.741, self.pitch_angle = 0.0, self.roll_angle = 0.0, self.yaw_angle = 0.0
2024-02-08 20:34:57.661569: self.boat.gps.time='2024-02-08T20:34:56.000Z', self.flap.relative_angle = 124, self.wingsail.absolute_angle = 356.1328125, self.app_wind_magnitude = 0.3519061505794525, self.app_wind_angle = 35.542510986328125, self.gps.lat = 29.720851667, self.gps.lon = -95.401893333, self.gps.speed = 0.741, self.pitch_angle = 0.0, self.roll_angle = 0.0, self.yaw_angle = 0.0
2024-02-08 20:34:57.759870: self.boat.gps.time='2024-02-08T20:34:56.000Z', self.flap.relative_angle = 124, self.wingsail.absolute_angle = 356.8359375, self.app_wind_magnitude = 0.3519061505794525, self.app_wind_angle = 34.838714599609375, self.gps.lat = 29.720851667, self.gps.lon = -95.401893333, self.gps.speed = 0.741, self.pitch_angle = 0.0, self.roll_angle = 0.0, self.yaw_angle = 0.0
2024-02-08 20:34:57.858123: self.boat.gps.time='2024-02-08T20:34:56.000Z', self.flap.relative_angle = 124, self.wingsail.absolute_angle = 357.802734375, self.app_wind_magnitude = 0.30791789293289185, self.app_wind_angle = 35.894439697265625, self.gps.lat = 29.720851667, self.gps.lon = -95.401893333, self.gps.speed = 0.741, self.pitch_angle = 0.0, self.roll_angle = 0.0, self.yaw_angle = 0.0
2024-02-08 20:34:57.957067: self.boat.gps.time='2024-02-08T20:34:57.000Z', self.flap.relative_angle = 124, self.wingsail.absolute_angle = 357.978515625, self.app_wind_magnitude = 0.30791789293289185, self.app_wind_angle = 75.30792236328125, self.gps.lat = 29.72085, self.gps.lon = -95.401901667, self.gps.speed = 0.761, self.pitch_angle = 0.0, self.roll_angle = 0.0, self.yaw_angle = 0.0
2024-02-08 20:34:58.055332: self.boat.gps.time='2024-02-08T20:34:57.000Z', self.flap.relative_angle = 124, self.wingsail.absolute_angle = 357.626953125, self.app_wind_magnitude = 0.3519061505794525, self.app_wind_angle = 74.60409545898438, self.gps.lat = 29.72085, self.gps.lon = -95.401901667, self.gps.speed = 0.761, self.pitch_angle = 0.0, self.roll_angle = 0.0, self.yaw_angle = 0.0
2024-02-08 20:34:58.154015: self.boat.gps.time='2024-02-08T20:34:57.000Z', self.flap.relative_angle = 124, self.wingsail.absolute_angle = 358.41796875, self.app_wind_magnitude = 0.6158357858657837, self.app_wind_angle = 74.95599365234375, self.gps.lat = 29.72085, self.gps.lon = -95.401901667, self.gps.speed = 0.761, self.pitch_angle = 0.0, self.roll_angle = 0.0, self.yaw_angle = 0.0
2024-02-08 20:34:58.250369: self.boat.gps.time='2024-02-08T20:34:57.000Z', self.flap.relative_angle = 124, self.wingsail.absolute_angle = 357.802734375, self.app_wind_magnitude = 0.7478006482124329, self.app_wind_angle = 74.95599365234375, self.gps.lat = 29.72085, self.gps.lon = -95.401901667, self.gps.speed = 0.761, self.pitch_angle = 0.0, self.roll_angle = 0.0, self.yaw_angle = 0.0
2024-02-08 20:34:58.347684: self.boat.gps.time='2024-02-08T20:34:57.000Z', self.flap.relative_angle = 124, self.wingsail.absolute_angle = 357.890625, self.app_wind_magnitude = 0.7478006482124329, self.app_wind_angle = 74.60409545898438, self.gps.lat = 29.72085, self.gps.lon = -95.401901667, self.gps.speed = 0.761, self.pitch_angle = 0.0, self.roll_angle = 0.0, self.yaw_angle = 0.0
2024-02-08 20:34:58.445883: self.boat.gps.time='2024-02-08T20:34:57.000Z', self.flap.relative_angle = 124, self.wingsail.absolute_angle = 357.275390625, self.app_wind_magnitude = 0.659824013710022, self.app_wind_angle = 74.252197265625, self.gps.lat = 29.72085, self.gps.lon = -95.401901667, self.gps.speed = 0.761, self.pitch_angle = 0.0, self.roll_angle = 0.0, self.yaw_angle = 0.0
2024-02-08 20:34:58.544094: self.boat.gps.time='2024-02-08T20:34:57.000Z', self.flap.relative_angle = 124, self.wingsail.absolute_angle = 357.1875, self.app_wind_magnitude = 0.659824013710022, self.app_wind_angle = 74.95599365234375, self.gps.lat = 29.72085, self.gps.lon = -95.401901667, self.gps.speed = 0.761, self.pitch_angle = 0.0, self.roll_angle = 0.0, self.yaw_angle = 0.0
2024-02-08 20:34:58.646265: self.boat.gps.time='2024-02-08T20:34:57.000Z', self.flap.relative_angle = 124, self.wingsail.absolute_angle = 357.275390625, self.app_wind_magnitude = 0.703812301158905, self.app_wind_angle = 102.05279541015625, self.gps.lat = 29.72085, self.gps.lon = -95.401901667, self.gps.speed = 0.761, self.pitch_angle = 0.0, self.roll_angle = 0.0, self.yaw_angle = 0.0
2024-02-08 20:34:58.753425: self.boat.gps.time='2024-02-08T20:34:57.000Z', self.flap.relative_angle = 124, self.wingsail.absolute_angle = 357.451171875, self.app_wind_magnitude = 0.7478006482124329, self.app_wind_angle = 103.1085205078125, self.gps.lat = 29.72085, self.gps.lon = -95.401901667, self.gps.speed = 0.761, self.pitch_angle = 0.0, self.roll_angle = 0.0, self.yaw_angle = 0.0
2024-02-08 20:34:58.862922: self.boat.gps.time='2024-02-08T20:34:57.000Z', self.flap.relative_angle = 124, self.wingsail.absolute_angle = 357.099609375, self.app_wind_magnitude = 0.703812301158905, self.app_wind_angle = 102.40469360351562, self.gps.lat = 29.72085, self.gps.lon = -95.401901667, self.gps.speed = 0.761, self.pitch_angle = 0.0, self.roll_angle = 0.0, self.yaw_angle = 0.0
2024-02-08 20:34:58.971531: self.boat.gps.time='2024-02-08T20:34:58.000Z', self.flap.relative_angle = 124, self.wingsail.absolute_angle = 356.8359375, self.app_wind_magnitude = 0.659824013710022, self.app_wind_angle = 102.40469360351562, self.gps.lat = 29.720846667, self.gps.lon = -95.40191, self.gps.speed = 0.761, self.pitch_angle = 0.0, self.roll_angle = 0.0, self.yaw_angle = 0.0
2024-02-08 20:34:59.077236: self.boat.gps.time='2024-02-08T20:34:58.000Z', self.flap.relative_angle = 124, self.wingsail.absolute_angle = 356.572265625, self.app_wind_magnitude = 0.659824013710022, self.app_wind_angle = 102.40469360351562, self.gps.lat = 29.720846667, self.gps.lon = -95.40191, self.gps.speed = 0.761, self.pitch_angle = 0.0, self.roll_angle = 0.0, self.yaw_angle = 0.0
2024-02-08 20:34:59.186687: self.boat.gps.time='2024-02-08T20:34:58.000Z', self.flap.relative_angle = 124, self.wingsail.absolute_angle = 356.396484375, self.app_wind_magnitude = 0.5278592109680176, self.app_wind_angle = 102.40469360351562, self.gps.lat = 29.720846667, self.gps.lon = -95.40191, self.gps.speed = 0.761, self.pitch_angle = 0.0, self.roll_angle = 0.0, self.yaw_angle = 0.0
2024-02-08 20:34:59.293799: self.boat.gps.time='2024-02-08T20:34:58.000Z', self.flap.relative_angle = 124, self.wingsail.absolute_angle = 356.572265625, self.app_wind_magnitude = 0.5718474984169006, self.app_wind_angle = 101.34896850585938, self.gps.lat = 29.720846667, self.gps.lon = -95.40191, self.gps.speed = 0.761, self.pitch_angle = 0.0, self.roll_angle = 0.0, self.yaw_angle = 0.0
2024-02-08 20:34:59.401395: self.boat.gps.time='2024-02-08T20:34:58.000Z', self.flap.relative_angle = 124, self.wingsail.absolute_angle = 356.1328125, self.app_wind_magnitude = 0.5278592109680176, self.app_wind_angle = 70.3812255859375, self.gps.lat = 29.720846667, self.gps.lon = -95.40191, self.gps.speed = 0.761, self.pitch_angle = 0.0, self.roll_angle = 0.0, self.yaw_angle = 0.0
2024-02-08 20:34:59.510623: self.boat.gps.time='2024-02-08T20:34:58.000Z', self.flap.relative_angle = 124, self.wingsail.absolute_angle = 356.748046875, self.app_wind_magnitude = 0.5718474984169006, self.app_wind_angle = 68.26980590820312, self.gps.lat = 29.720846667, self.gps.lon = -95.40191, self.gps.speed = 0.761, self.pitch_angle = 0.0, self.roll_angle = 0.0, self.yaw_angle = 0.0
2024-02-08 20:34:59.620649: self.boat.gps.time='2024-02-08T20:34:58.000Z', self.flap.relative_angle = 124, self.wingsail.absolute_angle = 356.220703125, self.app_wind_magnitude = 0.5718474984169006, self.app_wind_angle = 67.56597900390625, self.gps.lat = 29.720846667, self.gps.lon = -95.40191, self.gps.speed = 0.761, self.pitch_angle = 0.0, self.roll_angle = 0.0, self.yaw_angle = 0.0
2024-02-08 20:34:59.727831: self.boat.gps.time='2024-02-08T20:34:58.000Z', self.flap.relative_angle = 124, self.wingsail.absolute_angle = 356.66015625, self.app_wind_magnitude = 0.5718474984169006, self.app_wind_angle = 67.91790771484375, self.gps.lat = 29.720846667, self.gps.lon = -95.40191, self.gps.speed = 0.761, self.pitch_angle = 0.0, self.roll_angle = 0.0, self.yaw_angle = 0.0
2024-02-08 20:34:59.835172: self.boat.gps.time='2024-02-08T20:34:58.000Z', self.flap.relative_angle = 124, self.wingsail.absolute_angle = 357.451171875, self.app_wind_magnitude = 0.4838709533214569, self.app_wind_angle = 68.6217041015625, self.gps.lat = 29.720846667, self.gps.lon = -95.40191, self.gps.speed = 0.761, self.pitch_angle = 0.0, self.roll_angle = 0.0, self.yaw_angle = 0.0
2024-02-08 20:34:59.944517: self.boat.gps.time='2024-02-08T20:34:58.000Z', self.flap.relative_angle = 124, self.wingsail.absolute_angle = 355.95703125, self.app_wind_magnitude = 0.4838709533214569, self.app_wind_angle = 67.91790771484375, self.gps.lat = 29.720846667, self.gps.lon = -95.40191, self.gps.speed = 0.761, self.pitch_angle = 0.0, self.roll_angle = 0.0, self.yaw_angle = 0.0
2024-02-08 20:35:00.051816: self.boat.gps.time='2024-02-08T20:34:59.000Z', self.flap.relative_angle = 124, self.wingsail.absolute_angle = 355.60546875, self.app_wind_magnitude = 0.5718474984169006, self.app_wind_angle = 65.45455932617188, self.gps.lat = 29.720845, self.gps.lon = -95.40192, self.gps.speed = 0.761, self.pitch_angle = 0.0, self.roll_angle = 0.0, self.yaw_angle = 0.0
2024-02-08 20:35:00.158946: self.boat.gps.time='2024-02-08T20:34:59.000Z', self.flap.relative_angle = 124, self.wingsail.absolute_angle = 355.25390625, self.app_wind_magnitude = 0.43988269567489624, self.app_wind_angle = 68.6217041015625, self.gps.lat = 29.720845, self.gps.lon = -95.40192, self.gps.speed = 0.761, self.pitch_angle = 0.0, self.roll_angle = 0.0, self.yaw_angle = 0.0
2024-02-08 20:35:00.268260: self.boat.gps.time='2024-02-08T20:34:59.000Z', self.flap.relative_angle = 124, self.wingsail.absolute_angle = 355.4296875, self.app_wind_magnitude = 0.43988269567489624, self.app_wind_angle = 19.706756591796875, self.gps.lat = 29.720845, self.gps.lon = -95.40192, self.gps.speed = 0.761, self.pitch_angle = 0.0, self.roll_angle = 0.0, self.yaw_angle = 0.0
2024-02-08 20:35:00.375357: self.boat.gps.time='2024-02-08T20:34:59.000Z', self.flap.relative_angle = 124, self.wingsail.absolute_angle = 354.814453125, self.app_wind_magnitude = 0.43988269567489624, self.app_wind_angle = 19.3548583984375, self.gps.lat = 29.720845, self.gps.lon = -95.40192, self.gps.speed = 0.761, self.pitch_angle = 0.0, self.roll_angle = 0.0, self.yaw_angle = 0.0
2024-02-08 20:35:00.482790: self.boat.gps.time='2024-02-08T20:34:59.000Z', self.flap.relative_angle = 124, self.wingsail.absolute_angle = 354.90234375, self.app_wind_magnitude = 0.43988269567489624, self.app_wind_angle = 20.41058349609375, self.gps.lat = 29.720845, self.gps.lon = -95.40192, self.gps.speed = 0.761, self.pitch_angle = 0.0, self.roll_angle = 0.0, self.yaw_angle = 0.0
2024-02-08 20:35:00.591992: self.boat.gps.time='2024-02-08T20:34:59.000Z', self.flap.relative_angle = 124, self.wingsail.absolute_angle = 354.814453125, self.app_wind_magnitude = 0.4838709533214569, self.app_wind_angle = 20.05865478515625, self.gps.lat = 29.720845, self.gps.lon = -95.40192, self.gps.speed = 0.761, self.pitch_angle = 0.0, self.roll_angle = 0.0, self.yaw_angle = 0.0
2024-02-08 20:35:00.699165: self.boat.gps.time='2024-02-08T20:34:59.000Z', self.flap.relative_angle = 124, self.wingsail.absolute_angle = 354.638671875, self.app_wind_magnitude = 0.43988269567489624, self.app_wind_angle = 18.651031494140625, self.gps.lat = 29.720845, self.gps.lon = -95.40192, self.gps.speed = 0.761, self.pitch_angle = 0.0, self.roll_angle = 0.0, self.yaw_angle = 0.0
2024-02-08 20:35:00.808429: self.boat.gps.time='2024-02-08T20:34:59.000Z', self.flap.relative_angle = 124, self.wingsail.absolute_angle = 354.287109375, self.app_wind_magnitude = 0.39589443802833557, self.app_wind_angle = 19.706756591796875, self.gps.lat = 29.720845, self.gps.lon = -95.40192, self.gps.speed = 0.761, self.pitch_angle = 0.0, self.roll_angle = 0.0, self.yaw_angle = 0.0
2024-02-08 20:35:00.915915: self.boat.gps.time='2024-02-08T20:34:59.000Z', self.flap.relative_angle = 124, self.wingsail.absolute_angle = 354.287109375, self.app_wind_magnitude = 0.43988269567489624, self.app_wind_angle = 19.3548583984375, self.gps.lat = 29.720845, self.gps.lon = -95.40192, self.gps.speed = 0.761, self.pitch_angle = 0.0, self.roll_angle = 0.0, self.yaw_angle = 0.0
2024-02-08 20:35:01.022753: self.boat.gps.time='2024-02-08T20:34:59.000Z', self.flap.relative_angle = 124, self.wingsail.absolute_angle = 354.287109375, self.app_wind_magnitude = 0.43988269567489624, self.app_wind_angle = 3.8709716796875, self.gps.lat = 29.720845, self.gps.lon = -95.40192, self.gps.speed = 0.761, self.pitch_angle = 0.0, self.roll_angle = 0.0, self.yaw_angle = 0.0
2024-02-08 20:35:01.133074: self.boat.gps.time='2024-02-08T20:35:00.000Z', self.flap.relative_angle = 124, self.wingsail.absolute_angle = 354.111328125, self.app_wind_magnitude = 0.659824013710022, self.app_wind_angle = 3.51904296875, self.gps.lat = 29.720841667, self.gps.lon = -95.401926667, self.gps.speed = 0.761, self.pitch_angle = 0.0, self.roll_angle = 0.0, self.yaw_angle = 0.0
2024-02-08 20:35:01.239302: self.boat.gps.time='2024-02-08T20:35:00.000Z', self.flap.relative_angle = 124, self.wingsail.absolute_angle = 354.462890625, self.app_wind_magnitude = 0.659824013710022, self.app_wind_angle = 3.8709716796875, self.gps.lat = 29.720841667, self.gps.lon = -95.401926667, self.gps.speed = 0.761, self.pitch_angle = 0.0, self.roll_angle = 0.0, self.yaw_angle = 0.0
2024-02-08 20:35:01.346636: self.boat.gps.time='2024-02-08T20:35:00.000Z', self.flap.relative_angle = 124, self.wingsail.absolute_angle = 354.7265625, self.app_wind_magnitude = 0.703812301158905, self.app_wind_angle = 3.51904296875, self.gps.lat = 29.720841667, self.gps.lon = -95.401926667, self.gps.speed = 0.761, self.pitch_angle = 0.0, self.roll_angle = 0.0, self.yaw_angle = 0.0
2024-02-08 20:35:01.456114: self.boat.gps.time='2024-02-08T20:35:00.000Z', self.flap.relative_angle = 124, self.wingsail.absolute_angle = 353.759765625, self.app_wind_magnitude = 0.703812301158905, self.app_wind_angle = 3.51904296875, self.gps.lat = 29.720841667, self.gps.lon = -95.401926667, self.gps.speed = 0.761, self.pitch_angle = 0.0, self.roll_angle = 0.0, self.yaw_angle = 0.0
2024-02-08 20:35:01.563168: self.boat.gps.time='2024-02-08T20:35:00.000Z', self.flap.relative_angle = 124, self.wingsail.absolute_angle = 353.583984375, self.app_wind_magnitude = 0.8357771635055542, self.app_wind_angle = 3.51904296875, self.gps.lat = 29.720841667, self.gps.lon = -95.401926667, self.gps.speed = 0.761, self.pitch_angle = 0.0, self.roll_angle = 0.0, self.yaw_angle = 0.0
2024-02-08 20:35:01.670707: self.boat.gps.time='2024-02-08T20:35:00.000Z', self.flap.relative_angle = 124, self.wingsail.absolute_angle = 352.529296875, self.app_wind_magnitude = 0.7478006482124329, self.app_wind_angle = 3.51904296875, self.gps.lat = 29.720841667, self.gps.lon = -95.401926667, self.gps.speed = 0.761, self.pitch_angle = 0.0, self.roll_angle = 0.0, self.yaw_angle = 0.0
2024-02-08 20:35:01.779789: self.boat.gps.time='2024-02-08T20:35:00.000Z', self.flap.relative_angle = 124, self.wingsail.absolute_angle = 351.826171875, self.app_wind_magnitude = 0.7478006482124329, self.app_wind_angle = 3.51904296875, self.gps.lat = 29.720841667, self.gps.lon = -95.401926667, self.gps.speed = 0.761, self.pitch_angle = 0.0, self.roll_angle = 0.0, self.yaw_angle = 0.0
2024-02-08 20:35:01.886828: self.boat.gps.time='2024-02-08T20:35:00.000Z', self.flap.relative_angle = 124, self.wingsail.absolute_angle = 352.08984375, self.app_wind_magnitude = 0.7478006482124329, self.app_wind_angle = 3.51904296875, self.gps.lat = 29.720841667, self.gps.lon = -95.401926667, self.gps.speed = 0.761, self.pitch_angle = 0.0, self.roll_angle = 0.0, self.yaw_angle = 0.0
2024-02-08 20:35:01.996283: self.boat.gps.time='2024-02-08T20:35:00.000Z', self.flap.relative_angle = 124, self.wingsail.absolute_angle = 352.177734375, self.app_wind_magnitude = 0.7478006482124329, self.app_wind_angle = 3.51904296875, self.gps.lat = 29.720841667, self.gps.lon = -95.401926667, self.gps.speed = 0.761, self.pitch_angle = 0.0, self.roll_angle = 0.0, self.yaw_angle = 0.0
2024-02-08 20:35:02.103315: self.boat.gps.time='2024-02-08T20:35:00.000Z', self.flap.relative_angle = 124, self.wingsail.absolute_angle = 352.265625, self.app_wind_magnitude = 0.659824013710022, self.app_wind_angle = 2.81524658203125, self.gps.lat = 29.720841667, self.gps.lon = -95.401926667, self.gps.speed = 0.761, self.pitch_angle = 0.0, self.roll_angle = 0.0, self.yaw_angle = 0.0
2024-02-08 20:35:02.211083: self.boat.gps.time='2024-02-08T20:35:01.000Z', self.flap.relative_angle = 124, self.wingsail.absolute_angle = 352.08984375, self.app_wind_magnitude = 0.8357771635055542, self.app_wind_angle = 3.51904296875, self.gps.lat = 29.720838333, self.gps.lon = -95.401936667, self.gps.speed = 0.797, self.pitch_angle = 0.0, self.roll_angle = 0.0, self.yaw_angle = 0.0
2024-02-08 20:35:02.320068: self.boat.gps.time='2024-02-08T20:35:01.000Z', self.flap.relative_angle = 124, self.wingsail.absolute_angle = 351.826171875, self.app_wind_magnitude = 0.7917888760566711, self.app_wind_angle = 3.51904296875, self.gps.lat = 29.720838333, self.gps.lon = -95.401936667, self.gps.speed = 0.797, self.pitch_angle = 0.0, self.roll_angle = 0.0, self.yaw_angle = 0.0
2024-02-08 20:35:02.427201: self.boat.gps.time='2024-02-08T20:35:01.000Z', self.flap.relative_angle = 124, self.wingsail.absolute_angle = 351.38671875, self.app_wind_magnitude = 0.8357771635055542, self.app_wind_angle = 2.81524658203125, self.gps.lat = 29.720838333, self.gps.lon = -95.401936667, self.gps.speed = 0.797, self.pitch_angle = 0.0, self.roll_angle = 0.0, self.yaw_angle = 0.0
2024-02-08 20:35:02.534632: self.boat.gps.time='2024-02-08T20:35:01.000Z', self.flap.relative_angle = 124, self.wingsail.absolute_angle = 350.68359375, self.app_wind_magnitude = 0.7917888760566711, self.app_wind_angle = 3.51904296875, self.gps.lat = 29.720838333, self.gps.lon = -95.401936667, self.gps.speed = 0.797, self.pitch_angle = 0.0, self.roll_angle = 0.0, self.yaw_angle = 0.0
2024-02-08 20:35:02.643911: self.boat.gps.time='2024-02-08T20:35:01.000Z', self.flap.relative_angle = 124, self.wingsail.absolute_angle = 350.419921875, self.app_wind_magnitude = 0.8797653913497925, self.app_wind_angle = 326.2170104980469, self.gps.lat = 29.720838333, self.gps.lon = -95.401936667, self.gps.speed = 0.797, self.pitch_angle = 0.0, self.roll_angle = 0.0, self.yaw_angle = 0.0
2024-02-08 20:35:02.751457: self.boat.gps.time='2024-02-08T20:35:01.000Z', self.flap.relative_angle = 124, self.wingsail.absolute_angle = 349.8046875, self.app_wind_magnitude = 0.8357771635055542, self.app_wind_angle = 330.0879821777344, self.gps.lat = 29.720838333, self.gps.lon = -95.401936667, self.gps.speed = 0.797, self.pitch_angle = 0.0, self.roll_angle = 0.0, self.yaw_angle = 0.0
2024-02-08 20:35:02.858501: self.boat.gps.time='2024-02-08T20:35:01.000Z', self.flap.relative_angle = 124, self.wingsail.absolute_angle = 349.892578125, self.app_wind_magnitude = 0.8797653913497925, self.app_wind_angle = 330.0879821777344, self.gps.lat = 29.720838333, self.gps.lon = -95.401936667, self.gps.speed = 0.797, self.pitch_angle = 0.0, self.roll_angle = 0.0, self.yaw_angle = 0.0
2024-02-08 20:35:02.967592: self.boat.gps.time='2024-02-08T20:35:01.000Z', self.flap.relative_angle = 124, self.wingsail.absolute_angle = 349.453125, self.app_wind_magnitude = 0.8797653913497925, self.app_wind_angle = 332.19940185546875, self.gps.lat = 29.720838333, self.gps.lon = -95.401936667, self.gps.speed = 0.797, self.pitch_angle = 0.0, self.roll_angle = 0.0, self.yaw_angle = 0.0
2024-02-08 20:35:03.074696: self.boat.gps.time='2024-02-08T20:35:01.000Z', self.flap.relative_angle = 124, self.wingsail.absolute_angle = 349.365234375, self.app_wind_magnitude = 0.7917888760566711, self.app_wind_angle = 330.0879821777344, self.gps.lat = 29.720838333, self.gps.lon = -95.401936667, self.gps.speed = 0.797, self.pitch_angle = 0.0, self.roll_angle = 0.0, self.yaw_angle = 0.0
2024-02-08 20:35:03.182262: self.boat.gps.time='2024-02-08T20:35:01.000Z', self.flap.relative_angle = 124, self.wingsail.absolute_angle = 348.3984375, self.app_wind_magnitude = 0.659824013710022, self.app_wind_angle = 329.3841552734375, self.gps.lat = 29.720838333, self.gps.lon = -95.401936667, self.gps.speed = 0.797, self.pitch_angle = 0.0, self.roll_angle = 0.0, self.yaw_angle = 0.0
2024-02-08 20:35:03.291746: self.boat.gps.time='2024-02-08T20:35:02.000Z', self.flap.relative_angle = 124, self.wingsail.absolute_angle = 347.16796875, self.app_wind_magnitude = 0.703812301158905, self.app_wind_angle = 330.7917785644531, self.gps.lat = 29.720835, self.gps.lon = -95.401945, self.gps.speed = 0.808, self.pitch_angle = 0.0, self.roll_angle = 0.0, self.yaw_angle = 0.0
2024-02-08 20:35:03.398400: self.boat.gps.time='2024-02-08T20:35:02.000Z', self.flap.relative_angle = 124, self.wingsail.absolute_angle = 346.552734375, self.app_wind_magnitude = 0.659824013710022, self.app_wind_angle = 329.3841552734375, self.gps.lat = 29.720835, self.gps.lon = -95.401945, self.gps.speed = 0.808, self.pitch_angle = 0.0, self.roll_angle = 0.0, self.yaw_angle = 0.0
2024-02-08 20:35:03.507866: self.boat.gps.time='2024-02-08T20:35:02.000Z', self.flap.relative_angle = 124, self.wingsail.absolute_angle = 346.2890625, self.app_wind_magnitude = 0.6158357858657837, self.app_wind_angle = 337.4779968261719, self.gps.lat = 29.720835, self.gps.lon = -95.401945, self.gps.speed = 0.808, self.pitch_angle = 0.0, self.roll_angle = 0.0, self.yaw_angle = 0.0
2024-02-08 20:35:03.615053: self.boat.gps.time='2024-02-08T20:35:02.000Z', self.flap.relative_angle = 124, self.wingsail.absolute_angle = 346.025390625, self.app_wind_magnitude = 0.6158357858657837, self.app_wind_angle = 338.8856201171875, self.gps.lat = 29.720835, self.gps.lon = -95.401945, self.gps.speed = 0.808, self.pitch_angle = 0.0, self.roll_angle = 0.0, self.yaw_angle = 0.0
2024-02-08 20:35:03.722593: self.boat.gps.time='2024-02-08T20:35:02.000Z', self.flap.relative_angle = 124, self.wingsail.absolute_angle = 344.970703125, self.app_wind_magnitude = 0.659824013710022, self.app_wind_angle = 336.07037353515625, self.gps.lat = 29.720835, self.gps.lon = -95.401945, self.gps.speed = 0.808, self.pitch_angle = 0.0, self.roll_angle = 0.0, self.yaw_angle = 0.0
2024-02-08 20:35:03.831549: self.boat.gps.time='2024-02-08T20:35:02.000Z', self.flap.relative_angle = 124, self.wingsail.absolute_angle = 345.41015625, self.app_wind_magnitude = 0.659824013710022, self.app_wind_angle = 337.1260986328125, self.gps.lat = 29.720835, self.gps.lon = -95.401945, self.gps.speed = 0.808, self.pitch_angle = 0.0, self.roll_angle = 0.0, self.yaw_angle = 0.0
2024-02-08 20:35:03.938665: self.boat.gps.time='2024-02-08T20:35:02.000Z', self.flap.relative_angle = 124, self.wingsail.absolute_angle = 344.70703125, self.app_wind_magnitude = 0.703812301158905, self.app_wind_angle = 339.237548828125, self.gps.lat = 29.720835, self.gps.lon = -95.401945, self.gps.speed = 0.808, self.pitch_angle = 0.0, self.roll_angle = 0.0, self.yaw_angle = 0.0
2024-02-08 20:35:04.046182: self.boat.gps.time='2024-02-08T20:35:02.000Z', self.flap.relative_angle = 124, self.wingsail.absolute_angle = 344.1796875, self.app_wind_magnitude = 0.659824013710022, self.app_wind_angle = 338.8856201171875, self.gps.lat = 29.720835, self.gps.lon = -95.401945, self.gps.speed = 0.808, self.pitch_angle = 0.0, self.roll_angle = 0.0, self.yaw_angle = 0.0
2024-02-08 20:35:04.155479: self.boat.gps.time='2024-02-08T20:35:02.000Z', self.flap.relative_angle = 124, self.wingsail.absolute_angle = 343.037109375, self.app_wind_magnitude = 0.43988269567489624, self.app_wind_angle = 337.4779968261719, self.gps.lat = 29.720835, self.gps.lon = -95.401945, self.gps.speed = 0.808, self.pitch_angle = 0.0, self.roll_angle = 0.0, self.yaw_angle = 0.0
2024-02-08 20:35:04.262812: self.boat.gps.time='2024-02-08T20:35:02.000Z', self.flap.relative_angle = 124, self.wingsail.absolute_angle = 343.212890625, self.app_wind_magnitude = 0.4838709533214569, self.app_wind_angle = 350.1466369628906, self.gps.lat = 29.720835, self.gps.lon = -95.401945, self.gps.speed = 0.808, self.pitch_angle = 0.0, self.roll_angle = 0.0, self.yaw_angle = 0.0
2024-02-08 20:35:04.370688: self.boat.gps.time='2024-02-08T20:35:03.000Z', self.flap.relative_angle = 124, self.wingsail.absolute_angle = 342.94921875, self.app_wind_magnitude = 0.43988269567489624, self.app_wind_angle = 348.0351867675781, self.gps.lat = 29.720833333, self.gps.lon = -95.401953333, self.gps.speed = 0.828, self.pitch_angle = 0.0, self.roll_angle = 0.0, self.yaw_angle = 0.0
2024-02-08 20:35:04.479033: self.boat.gps.time='2024-02-08T20:35:03.000Z', self.flap.relative_angle = 124, self.wingsail.absolute_angle = 343.125, self.app_wind_magnitude = 0.39589443802833557, self.app_wind_angle = 345.92376708984375, self.gps.lat = 29.720833333, self.gps.lon = -95.401953333, self.gps.speed = 0.828, self.pitch_angle = 0.0, self.roll_angle = 0.0, self.yaw_angle = 0.0
2024-02-08 20:35:04.586592: self.boat.gps.time='2024-02-08T20:35:03.000Z', self.flap.relative_angle = 124, self.wingsail.absolute_angle = 342.861328125, self.app_wind_magnitude = 0.43988269567489624, self.app_wind_angle = 349.44281005859375, self.gps.lat = 29.720833333, self.gps.lon = -95.401953333, self.gps.speed = 0.828, self.pitch_angle = 0.0, self.roll_angle = 0.0, self.yaw_angle = 0.0
2024-02-08 20:35:04.695657: self.boat.gps.time='2024-02-08T20:35:03.000Z', self.flap.relative_angle = 124, self.wingsail.absolute_angle = 342.59765625, self.app_wind_magnitude = 0.43988269567489624, self.app_wind_angle = 349.44281005859375, self.gps.lat = 29.720833333, self.gps.lon = -95.401953333, self.gps.speed = 0.828, self.pitch_angle = 0.0, self.roll_angle = 0.0, self.yaw_angle = 0.0
2024-02-08 20:35:04.802835: self.boat.gps.time='2024-02-08T20:35:03.000Z', self.flap.relative_angle = 124, self.wingsail.absolute_angle = 341.630859375, self.app_wind_magnitude = 0.43988269567489624, self.app_wind_angle = 350.49853515625, self.gps.lat = 29.720833333, self.gps.lon = -95.401953333, self.gps.speed = 0.828, self.pitch_angle = 0.0, self.roll_angle = 0.0, self.yaw_angle = 0.0
2024-02-08 20:35:04.909887: self.boat.gps.time='2024-02-08T20:35:03.000Z', self.flap.relative_angle = 124, self.wingsail.absolute_angle = 342.158203125, self.app_wind_magnitude = 0.43988269567489624, self.app_wind_angle = 346.2756652832031, self.gps.lat = 29.720833333, self.gps.lon = -95.401953333, self.gps.speed = 0.828, self.pitch_angle = 0.0, self.roll_angle = 0.0, self.yaw_angle = 0.0
2024-02-08 20:35:05.019389: self.boat.gps.time='2024-02-08T20:35:03.000Z', self.flap.relative_angle = 124, self.wingsail.absolute_angle = 341.19140625, self.app_wind_magnitude = 0.39589443802833557, self.app_wind_angle = 350.8504333496094, self.gps.lat = 29.720833333, self.gps.lon = -95.401953333, self.gps.speed = 0.828, self.pitch_angle = 0.0, self.roll_angle = 0.0, self.yaw_angle = 0.0
2024-02-08 20:35:05.126504: self.boat.gps.time='2024-02-08T20:35:03.000Z', self.flap.relative_angle = 124, self.wingsail.absolute_angle = 341.630859375, self.app_wind_magnitude = 0.43988269567489624, self.app_wind_angle = 330.0879821777344, self.gps.lat = 29.720833333, self.gps.lon = -95.401953333, self.gps.speed = 0.828, self.pitch_angle = 0.0, self.roll_angle = 0.0, self.yaw_angle = 0.0
2024-02-08 20:35:05.233786: self.boat.gps.time='2024-02-08T20:35:03.000Z', self.flap.relative_angle = 124, self.wingsail.absolute_angle = 341.103515625, self.app_wind_magnitude = 0.21994134783744812, self.app_wind_angle = 329.3841552734375, self.gps.lat = 29.720833333, self.gps.lon = -95.401953333, self.gps.speed = 0.828, self.pitch_angle = 0.0, self.roll_angle = 0.0, self.yaw_angle = 0.0
2024-02-08 20:35:05.343243: self.boat.gps.time='2024-02-08T20:35:03.000Z', self.flap.relative_angle = 124, self.wingsail.absolute_angle = 340.6640625, self.app_wind_magnitude = 0.21994134783744812, self.app_wind_angle = 329.736083984375, self.gps.lat = 29.720833333, self.gps.lon = -95.401953333, self.gps.speed = 0.828, self.pitch_angle = 0.0, self.roll_angle = 0.0, self.yaw_angle = 0.0
2024-02-08 20:35:05.451208: self.boat.gps.time='2024-02-08T20:35:04.000Z', self.flap.relative_angle = 124, self.wingsail.absolute_angle = 340.927734375, self.app_wind_magnitude = 0.2639296054840088, self.app_wind_angle = 329.3841552734375, self.gps.lat = 29.72083, self.gps.lon = -95.401963333, self.gps.speed = 0.844, self.pitch_angle = 0.0, self.roll_angle = 0.0, self.yaw_angle = 0.0
2024-02-08 20:35:05.557599: self.boat.gps.time='2024-02-08T20:35:04.000Z', self.flap.relative_angle = 124, self.wingsail.absolute_angle = 341.279296875, self.app_wind_magnitude = 0.2639296054840088, self.app_wind_angle = 333.255126953125, self.gps.lat = 29.72083, self.gps.lon = -95.401963333, self.gps.speed = 0.844, self.pitch_angle = 0.0, self.roll_angle = 0.0, self.yaw_angle = 0.0
2024-02-08 20:35:05.666812: self.boat.gps.time='2024-02-08T20:35:04.000Z', self.flap.relative_angle = 124, self.wingsail.absolute_angle = 340.6640625, self.app_wind_magnitude = 0.17595307528972626, self.app_wind_angle = 332.19940185546875, self.gps.lat = 29.72083, self.gps.lon = -95.401963333, self.gps.speed = 0.844, self.pitch_angle = 0.0, self.roll_angle = 0.0, self.yaw_angle = 0.0
2024-02-08 20:35:05.774027: self.boat.gps.time='2024-02-08T20:35:04.000Z', self.flap.relative_angle = 124, self.wingsail.absolute_angle = 341.103515625, self.app_wind_magnitude = 0.2639296054840088, self.app_wind_angle = 329.0322570800781, self.gps.lat = 29.72083, self.gps.lon = -95.401963333, self.gps.speed = 0.844, self.pitch_angle = 0.0, self.roll_angle = 0.0, self.yaw_angle = 0.0
2024-02-08 20:35:05.881598: self.boat.gps.time='2024-02-08T20:35:04.000Z', self.flap.relative_angle = 124, self.wingsail.absolute_angle = 341.3671875, self.app_wind_magnitude = 0.21994134783744812, self.app_wind_angle = 348.3870849609375, self.gps.lat = 29.72083, self.gps.lon = -95.401963333, self.gps.speed = 0.844, self.pitch_angle = 0.0, self.roll_angle = 0.0, self.yaw_angle = 0.0
2024-02-08 20:35:05.990538: self.boat.gps.time='2024-02-08T20:35:04.000Z', self.flap.relative_angle = 124, self.wingsail.absolute_angle = 340.48828125, self.app_wind_magnitude = 0.21994134783744812, self.app_wind_angle = 348.3870849609375, self.gps.lat = 29.72083, self.gps.lon = -95.401963333, self.gps.speed = 0.844, self.pitch_angle = 0.0, self.roll_angle = 0.0, self.yaw_angle = 0.0
2024-02-08 20:35:06.097691: self.boat.gps.time='2024-02-08T20:35:04.000Z', self.flap.relative_angle = 124, self.wingsail.absolute_angle = 338.818359375, self.app_wind_magnitude = 0.21994134783744812, self.app_wind_angle = 346.9794616699219, self.gps.lat = 29.72083, self.gps.lon = -95.401963333, self.gps.speed = 0.844, self.pitch_angle = 0.0, self.roll_angle = 0.0, self.yaw_angle = 0.0
2024-02-08 20:35:06.207131: self.boat.gps.time='2024-02-08T20:35:04.000Z', self.flap.relative_angle = 124, self.wingsail.absolute_angle = 338.642578125, self.app_wind_magnitude = 0.5718474984169006, self.app_wind_angle = 346.6275634765625, self.gps.lat = 29.72083, self.gps.lon = -95.401963333, self.gps.speed = 0.844, self.pitch_angle = 0.0, self.roll_angle = 0.0, self.yaw_angle = 0.0
2024-02-08 20:35:06.314611: self.boat.gps.time='2024-02-08T20:35:04.000Z', self.flap.relative_angle = 124, self.wingsail.absolute_angle = 338.5546875, self.app_wind_magnitude = 0.4838709533214569, self.app_wind_angle = 348.739013671875, self.gps.lat = 29.72083, self.gps.lon = -95.401963333, self.gps.speed = 0.844, self.pitch_angle = 0.0, self.roll_angle = 0.0, self.yaw_angle = 0.0
2024-02-08 20:35:06.421703: self.boat.gps.time='2024-02-08T20:35:04.000Z', self.flap.relative_angle = 124, self.wingsail.absolute_angle = 338.466796875, self.app_wind_magnitude = 0.5278592109680176, self.app_wind_angle = 352.258056640625, self.gps.lat = 29.72083, self.gps.lon = -95.401963333, self.gps.speed = 0.844, self.pitch_angle = 0.0, self.roll_angle = 0.0, self.yaw_angle = 0.0
