2024-02-08 21:01:22.424947: self.boat.gps.time='2024-02-08T21:01:22.000Z', self.flap.relative_angle = 124, self.wingsail.absolute_angle = 0.791015625, self.app_wind_magnitude = 0.0, self.app_wind_angle = 124.57479858398438, self.gps.lat = 29.720855, self.gps.lon = -95.401873333, self.gps.speed = 0.005, self.pitch_angle = 0.0, self.roll_angle = 0.0, self.yaw_angle = 0.0
2024-02-08 21:01:22.522355: self.boat.gps.time='2024-02-08T21:01:22.000Z', self.flap.relative_angle = 124, self.wingsail.absolute_angle = 359.82421875, self.app_wind_magnitude = 0.0, self.app_wind_angle = 124.92669677734375, self.gps.lat = 29.720855, self.gps.lon = -95.401873333, self.gps.speed = 0.005, self.pitch_angle = 0.0, self.roll_angle = 0.0, self.yaw_angle = 0.0
2024-02-08 21:01:22.621099: self.boat.gps.time='2024-02-08T21:01:22.000Z', self.flap.relative_angle = 124, self.wingsail.absolute_angle = 359.912109375, self.app_wind_magnitude = 0.0, self.app_wind_angle = 124.57479858398438, self.gps.lat = 29.720855, self.gps.lon = -95.401873333, self.gps.speed = 0.005, self.pitch_angle = 0.0, self.roll_angle = 0.0, self.yaw_angle = 0.0
2024-02-08 21:01:22.719573: self.boat.gps.time='2024-02-08T21:01:22.000Z', self.flap.relative_angle = 124, self.wingsail.absolute_angle = 360.0, self.app_wind_magnitude = 0.0, self.app_wind_angle = 124.92669677734375, self.gps.lat = 29.720855, self.gps.lon = -95.401873333, self.gps.speed = 0.005, self.pitch_angle = 0.0, self.roll_angle = 0.0, self.yaw_angle = 0.0
2024-02-08 21:01:22.818163: self.boat.gps.time='2024-02-08T21:01:22.000Z', self.flap.relative_angle = 124, self.wingsail.absolute_angle = 359.912109375, self.app_wind_magnitude = 0.0, self.app_wind_angle = 124.92669677734375, self.gps.lat = 29.720855, self.gps.lon = -95.401873333, self.gps.speed = 0.005, self.pitch_angle = 0.0, self.roll_angle = 0.0, self.yaw_angle = 0.0
2024-02-08 21:01:22.916363: self.boat.gps.time='2024-02-08T21:01:22.000Z', self.flap.relative_angle = 124, self.wingsail.absolute_angle = 0.3515625, self.app_wind_magnitude = 0.0, self.app_wind_angle = 124.92669677734375, self.gps.lat = 29.720855, self.gps.lon = -95.401873333, self.gps.speed = 0.005, self.pitch_angle = 0.0, self.roll_angle = 0.0, self.yaw_angle = 0.0
2024-02-08 21:01:23.010804: self.boat.gps.time='2024-02-08T21:01:22.000Z', self.flap.relative_angle = 124, self.wingsail.absolute_angle = 359.82421875, self.app_wind_magnitude = 0.043988268822431564, self.app_wind_angle = 124.222900390625, self.gps.lat = 29.720855, self.gps.lon = -95.401873333, self.gps.speed = 0.005, self.pitch_angle = 0.0, self.roll_angle = 0.0, self.yaw_angle = 0.0
2024-02-08 21:01:23.108242: self.boat.gps.time='2024-02-08T21:01:22.000Z', self.flap.relative_angle = 124, self.wingsail.absolute_angle = 0.615234375, self.app_wind_magnitude = 0.0, self.app_wind_angle = 125.27861022949219, self.gps.lat = 29.720855, self.gps.lon = -95.401873333, self.gps.speed = 0.005, self.pitch_angle = 0.0, self.roll_angle = 0.0, self.yaw_angle = 0.0
2024-02-08 21:01:23.207463: self.boat.gps.time='2024-02-08T21:01:22.000Z', self.flap.relative_angle = 124, self.wingsail.absolute_angle = 359.912109375, self.app_wind_magnitude = 0.0, self.app_wind_angle = 125.27861022949219, self.gps.lat = 29.720855, self.gps.lon = -95.401873333, self.gps.speed = 0.005, self.pitch_angle = 0.0, self.roll_angle = 0.0, self.yaw_angle = 0.0
2024-02-08 21:01:23.305908: self.boat.gps.time='2024-02-08T21:01:22.000Z', self.flap.relative_angle = 124, self.wingsail.absolute_angle = 0.439453125, self.app_wind_magnitude = 0.0, self.app_wind_angle = 125.27861022949219, self.gps.lat = 29.720855, self.gps.lon = -95.401873333, self.gps.speed = 0.005, self.pitch_angle = 0.0, self.roll_angle = 0.0, self.yaw_angle = 0.0
2024-02-08 21:01:23.403508: self.boat.gps.time='2024-02-08T21:01:22.000Z', self.flap.relative_angle = 124, self.wingsail.absolute_angle = 0.263671875, self.app_wind_magnitude = 0.0, self.app_wind_angle = 125.27861022949219, self.gps.lat = 29.720855, self.gps.lon = -95.401873333, self.gps.speed = 0.005, self.pitch_angle = 0.0, self.roll_angle = 0.0, self.yaw_angle = 0.0
2024-02-08 21:01:23.688576: self.boat.gps.time='2024-02-08T21:01:23.000Z', self.flap.relative_angle = 124, self.wingsail.absolute_angle = 359.6484375, self.app_wind_magnitude = 0.0, self.app_wind_angle = 125.27861022949219, self.gps.lat = 29.720855, self.gps.lon = -95.401873333, self.gps.speed = 0.015, self.pitch_angle = 0.0, self.roll_angle = 0.0, self.yaw_angle = 0.0
2024-02-08 21:01:23.787123: self.boat.gps.time='2024-02-08T21:01:23.000Z', self.flap.relative_angle = 124, self.wingsail.absolute_angle = 359.82421875, self.app_wind_magnitude = 0.0, self.app_wind_angle = 124.92669677734375, self.gps.lat = 29.720855, self.gps.lon = -95.401873333, self.gps.speed = 0.015, self.pitch_angle = 0.0, self.roll_angle = 0.0, self.yaw_angle = 0.0
2024-02-08 21:01:23.885371: self.boat.gps.time='2024-02-08T21:01:23.000Z', self.flap.relative_angle = 124, self.wingsail.absolute_angle = 359.736328125, self.app_wind_magnitude = 0.0, self.app_wind_angle = 124.92669677734375, self.gps.lat = 29.720855, self.gps.lon = -95.401873333, self.gps.speed = 0.015, self.pitch_angle = 0.0, self.roll_angle = 0.0, self.yaw_angle = 0.0
2024-02-08 21:01:23.982255: self.boat.gps.time='2024-02-08T21:01:23.000Z', self.flap.relative_angle = 124, self.wingsail.absolute_angle = 0.615234375, self.app_wind_magnitude = 0.0, self.app_wind_angle = 126.68623352050781, self.gps.lat = 29.720855, self.gps.lon = -95.401873333, self.gps.speed = 0.015, self.pitch_angle = 0.0, self.roll_angle = 0.0, self.yaw_angle = 0.0
2024-02-08 21:01:24.080336: self.boat.gps.time='2024-02-08T21:01:23.000Z', self.flap.relative_angle = 124, self.wingsail.absolute_angle = 359.47265625, self.app_wind_magnitude = 0.0, self.app_wind_angle = 126.33432006835938, self.gps.lat = 29.720855, self.gps.lon = -95.401873333, self.gps.speed = 0.015, self.pitch_angle = 0.0, self.roll_angle = 0.0, self.yaw_angle = 0.0
2024-02-08 21:01:24.177447: self.boat.gps.time='2024-02-08T21:01:23.000Z', self.flap.relative_angle = 124, self.wingsail.absolute_angle = 0.17578125, self.app_wind_magnitude = 0.0, self.app_wind_angle = 126.68623352050781, self.gps.lat = 29.720855, self.gps.lon = -95.401873333, self.gps.speed = 0.015, self.pitch_angle = 0.0, self.roll_angle = 0.0, self.yaw_angle = 0.0
2024-02-08 21:01:24.274570: self.boat.gps.time='2024-02-08T21:01:23.000Z', self.flap.relative_angle = 124, self.wingsail.absolute_angle = 0.17578125, self.app_wind_magnitude = 0.0, self.app_wind_angle = 126.33432006835938, self.gps.lat = 29.720855, self.gps.lon = -95.401873333, self.gps.speed = 0.015, self.pitch_angle = 0.0, self.roll_angle = 0.0, self.yaw_angle = 0.0
2024-02-08 21:01:24.370533: self.boat.gps.time='2024-02-08T21:01:23.000Z', self.flap.relative_angle = 124, self.wingsail.absolute_angle = 0.263671875, self.app_wind_magnitude = 0.0, self.app_wind_angle = 126.33432006835938, self.gps.lat = 29.720855, self.gps.lon = -95.401873333, self.gps.speed = 0.015, self.pitch_angle = 0.0, self.roll_angle = 0.0, self.yaw_angle = 0.0
2024-02-08 21:01:24.469233: self.boat.gps.time='2024-02-08T21:01:23.000Z', self.flap.relative_angle = 124, self.wingsail.absolute_angle = 0.439453125, self.app_wind_magnitude = 0.0, self.app_wind_angle = 126.33432006835938, self.gps.lat = 29.720855, self.gps.lon = -95.401873333, self.gps.speed = 0.015, self.pitch_angle = 0.0, self.roll_angle = 0.0, self.yaw_angle = 0.0
2024-02-08 21:01:24.567490: self.boat.gps.time='2024-02-08T21:01:23.000Z', self.flap.relative_angle = 124, self.wingsail.absolute_angle = 0.263671875, self.app_wind_magnitude = 0.0, self.app_wind_angle = 125.982421875, self.gps.lat = 29.720855, self.gps.lon = -95.401873333, self.gps.speed = 0.015, self.pitch_angle = 0.0, self.roll_angle = 0.0, self.yaw_angle = 0.0
2024-02-08 21:01:24.662269: self.boat.gps.time='2024-02-08T21:01:23.000Z', self.flap.relative_angle = 124, self.wingsail.absolute_angle = 360.0, self.app_wind_magnitude = 0.0, self.app_wind_angle = 126.33432006835938, self.gps.lat = 29.720855, self.gps.lon = -95.401873333, self.gps.speed = 0.015, self.pitch_angle = 0.0, self.roll_angle = 0.0, self.yaw_angle = 0.0
2024-02-08 21:01:24.760351: self.boat.gps.time='2024-02-08T21:01:24.000Z', self.flap.relative_angle = 124, self.wingsail.absolute_angle = 0.263671875, self.app_wind_magnitude = 0.0, self.app_wind_angle = 130.20529174804688, self.gps.lat = 29.720855, self.gps.lon = -95.401873333, self.gps.speed = 0.0, self.pitch_angle = 0.0, self.roll_angle = 0.0, self.yaw_angle = 0.0
2024-02-08 21:01:24.857864: self.boat.gps.time='2024-02-08T21:01:24.000Z', self.flap.relative_angle = 124, self.wingsail.absolute_angle = 0.263671875, self.app_wind_magnitude = 0.0, self.app_wind_angle = 129.8533935546875, self.gps.lat = 29.720855, self.gps.lon = -95.401873333, self.gps.speed = 0.0, self.pitch_angle = 0.0, self.roll_angle = 0.0, self.yaw_angle = 0.0
2024-02-08 21:01:24.956422: self.boat.gps.time='2024-02-08T21:01:24.000Z', self.flap.relative_angle = 124, self.wingsail.absolute_angle = 360.0, self.app_wind_magnitude = 0.0, self.app_wind_angle = 130.20529174804688, self.gps.lat = 29.720855, self.gps.lon = -95.401873333, self.gps.speed = 0.0, self.pitch_angle = 0.0, self.roll_angle = 0.0, self.yaw_angle = 0.0
2024-02-08 21:01:25.054985: self.boat.gps.time='2024-02-08T21:01:24.000Z', self.flap.relative_angle = 124, self.wingsail.absolute_angle = 359.912109375, self.app_wind_magnitude = 0.0, self.app_wind_angle = 130.20529174804688, self.gps.lat = 29.720855, self.gps.lon = -95.401873333, self.gps.speed = 0.0, self.pitch_angle = 0.0, self.roll_angle = 0.0, self.yaw_angle = 0.0
2024-02-08 21:01:25.153302: self.boat.gps.time='2024-02-08T21:01:24.000Z', self.flap.relative_angle = 124, self.wingsail.absolute_angle = 0.087890625, self.app_wind_magnitude = 0.0, self.app_wind_angle = 130.20529174804688, self.gps.lat = 29.720855, self.gps.lon = -95.401873333, self.gps.speed = 0.0, self.pitch_angle = 0.0, self.roll_angle = 0.0, self.yaw_angle = 0.0
2024-02-08 21:01:25.251587: self.boat.gps.time='2024-02-08T21:01:24.000Z', self.flap.relative_angle = 124, self.wingsail.absolute_angle = 359.82421875, self.app_wind_magnitude = 0.0, self.app_wind_angle = 129.50148010253906, self.gps.lat = 29.720855, self.gps.lon = -95.401873333, self.gps.speed = 0.0, self.pitch_angle = 0.0, self.roll_angle = 0.0, self.yaw_angle = 0.0
2024-02-08 21:01:25.349902: self.boat.gps.time='2024-02-08T21:01:24.000Z', self.flap.relative_angle = 124, self.wingsail.absolute_angle = 359.82421875, self.app_wind_magnitude = 0.0, self.app_wind_angle = 130.20529174804688, self.gps.lat = 29.720855, self.gps.lon = -95.401873333, self.gps.speed = 0.0, self.pitch_angle = 0.0, self.roll_angle = 0.0, self.yaw_angle = 0.0
2024-02-08 21:01:25.447583: self.boat.gps.time='2024-02-08T21:01:24.000Z', self.flap.relative_angle = 124, self.wingsail.absolute_angle = 360.0, self.app_wind_magnitude = 0.0, self.app_wind_angle = 142.52200317382812, self.gps.lat = 29.720855, self.gps.lon = -95.401873333, self.gps.speed = 0.0, self.pitch_angle = 0.0, self.roll_angle = 0.0, self.yaw_angle = 0.0
2024-02-08 21:01:25.546002: self.boat.gps.time='2024-02-08T21:01:24.000Z', self.flap.relative_angle = 124, self.wingsail.absolute_angle = 359.82421875, self.app_wind_magnitude = 0.0, self.app_wind_angle = 142.8739013671875, self.gps.lat = 29.720855, self.gps.lon = -95.401873333, self.gps.speed = 0.0, self.pitch_angle = 0.0, self.roll_angle = 0.0, self.yaw_angle = 0.0
2024-02-08 21:01:25.644238: self.boat.gps.time='2024-02-08T21:01:24.000Z', self.flap.relative_angle = 124, self.wingsail.absolute_angle = 0.263671875, self.app_wind_magnitude = 0.0, self.app_wind_angle = 142.8739013671875, self.gps.lat = 29.720855, self.gps.lon = -95.401873333, self.gps.speed = 0.0, self.pitch_angle = 0.0, self.roll_angle = 0.0, self.yaw_angle = 0.0
2024-02-08 21:01:25.739433: self.boat.gps.time='2024-02-08T21:01:24.000Z', self.flap.relative_angle = 124, self.wingsail.absolute_angle = 359.912109375, self.app_wind_magnitude = 0.0, self.app_wind_angle = 141.81817626953125, self.gps.lat = 29.720855, self.gps.lon = -95.401873333, self.gps.speed = 0.0, self.pitch_angle = 0.0, self.roll_angle = 0.0, self.yaw_angle = 0.0
2024-02-08 21:01:25.838295: self.boat.gps.time='2024-02-08T21:01:25.000Z', self.flap.relative_angle = 124, self.wingsail.absolute_angle = 0.439453125, self.app_wind_magnitude = 0.0, self.app_wind_angle = 143.22579956054688, self.gps.lat = 29.720855, self.gps.lon = -95.401873333, self.gps.speed = 0.005, self.pitch_angle = 0.0, self.roll_angle = 0.0, self.yaw_angle = 0.0
2024-02-08 21:01:25.936582: self.boat.gps.time='2024-02-08T21:01:25.000Z', self.flap.relative_angle = 124, self.wingsail.absolute_angle = 359.736328125, self.app_wind_magnitude = 0.0, self.app_wind_angle = 142.8739013671875, self.gps.lat = 29.720855, self.gps.lon = -95.401873333, self.gps.speed = 0.005, self.pitch_angle = 0.0, self.roll_angle = 0.0, self.yaw_angle = 0.0
2024-02-08 21:01:26.034791: self.boat.gps.time='2024-02-08T21:01:25.000Z', self.flap.relative_angle = 124, self.wingsail.absolute_angle = 359.736328125, self.app_wind_magnitude = 0.0, self.app_wind_angle = 142.8739013671875, self.gps.lat = 29.720855, self.gps.lon = -95.401873333, self.gps.speed = 0.005, self.pitch_angle = 0.0, self.roll_angle = 0.0, self.yaw_angle = 0.0
2024-02-08 21:01:26.133026: self.boat.gps.time='2024-02-08T21:01:25.000Z', self.flap.relative_angle = 124, self.wingsail.absolute_angle = 359.6484375, self.app_wind_magnitude = 0.0, self.app_wind_angle = 144.28152465820312, self.gps.lat = 29.720855, self.gps.lon = -95.401873333, self.gps.speed = 0.005, self.pitch_angle = 0.0, self.roll_angle = 0.0, self.yaw_angle = 0.0
2024-02-08 21:01:26.228616: self.boat.gps.time='2024-02-08T21:01:25.000Z', self.flap.relative_angle = 124, self.wingsail.absolute_angle = 359.912109375, self.app_wind_magnitude = 0.0, self.app_wind_angle = 168.9149627685547, self.gps.lat = 29.720855, self.gps.lon = -95.401873333, self.gps.speed = 0.005, self.pitch_angle = 0.0, self.roll_angle = 0.0, self.yaw_angle = 0.0
2024-02-08 21:01:26.326891: self.boat.gps.time='2024-02-08T21:01:25.000Z', self.flap.relative_angle = 124, self.wingsail.absolute_angle = 359.912109375, self.app_wind_magnitude = 0.0, self.app_wind_angle = 169.26687622070312, self.gps.lat = 29.720855, self.gps.lon = -95.401873333, self.gps.speed = 0.005, self.pitch_angle = 0.0, self.roll_angle = 0.0, self.yaw_angle = 0.0
2024-02-08 21:01:26.425101: self.boat.gps.time='2024-02-08T21:01:25.000Z', self.flap.relative_angle = 124, self.wingsail.absolute_angle = 0.17578125, self.app_wind_magnitude = 0.0, self.app_wind_angle = 168.9149627685547, self.gps.lat = 29.720855, self.gps.lon = -95.401873333, self.gps.speed = 0.005, self.pitch_angle = 0.0, self.roll_angle = 0.0, self.yaw_angle = 0.0
2024-02-08 21:01:26.523446: self.boat.gps.time='2024-02-08T21:01:25.000Z', self.flap.relative_angle = 124, self.wingsail.absolute_angle = 359.6484375, self.app_wind_magnitude = 0.0, self.app_wind_angle = 168.9149627685547, self.gps.lat = 29.720855, self.gps.lon = -95.401873333, self.gps.speed = 0.005, self.pitch_angle = 0.0, self.roll_angle = 0.0, self.yaw_angle = 0.0
2024-02-08 21:01:26.619215: self.boat.gps.time='2024-02-08T21:01:25.000Z', self.flap.relative_angle = 124, self.wingsail.absolute_angle = 359.82421875, self.app_wind_magnitude = 0.0, self.app_wind_angle = 168.9149627685547, self.gps.lat = 29.720855, self.gps.lon = -95.401873333, self.gps.speed = 0.005, self.pitch_angle = 0.0, self.roll_angle = 0.0, self.yaw_angle = 0.0
2024-02-08 21:01:26.717277: self.boat.gps.time='2024-02-08T21:01:25.000Z', self.flap.relative_angle = 124, self.wingsail.absolute_angle = 0.615234375, self.app_wind_magnitude = 0.0, self.app_wind_angle = 169.6187744140625, self.gps.lat = 29.720855, self.gps.lon = -95.401873333, self.gps.speed = 0.005, self.pitch_angle = 0.0, self.roll_angle = 0.0, self.yaw_angle = 0.0
2024-02-08 21:01:26.815491: self.boat.gps.time='2024-02-08T21:01:25.000Z', self.flap.relative_angle = 124, self.wingsail.absolute_angle = 359.560546875, self.app_wind_magnitude = 0.0, self.app_wind_angle = 168.9149627685547, self.gps.lat = 29.720855, self.gps.lon = -95.401873333, self.gps.speed = 0.005, self.pitch_angle = 0.0, self.roll_angle = 0.0, self.yaw_angle = 0.0
2024-02-08 21:01:26.914303: self.boat.gps.time='2024-02-08T21:01:26.000Z', self.flap.relative_angle = 124, self.wingsail.absolute_angle = 359.736328125, self.app_wind_magnitude = 0.0, self.app_wind_angle = 175.60118103027344, self.gps.lat = 29.720855, self.gps.lon = -95.401873333, self.gps.speed = 0.005, self.pitch_angle = 0.0, self.roll_angle = 0.0, self.yaw_angle = 0.0
2024-02-08 21:01:27.010239: self.boat.gps.time='2024-02-08T21:01:26.000Z', self.flap.relative_angle = 124, self.wingsail.absolute_angle = 359.82421875, self.app_wind_magnitude = 0.0, self.app_wind_angle = 177.00880432128906, self.gps.lat = 29.720855, self.gps.lon = -95.401873333, self.gps.speed = 0.005, self.pitch_angle = 0.0, self.roll_angle = 0.0, self.yaw_angle = 0.0
2024-02-08 21:01:27.107666: self.boat.gps.time='2024-02-08T21:01:26.000Z', self.flap.relative_angle = 124, self.wingsail.absolute_angle = 359.560546875, self.app_wind_magnitude = 0.0, self.app_wind_angle = 177.00880432128906, self.gps.lat = 29.720855, self.gps.lon = -95.401873333, self.gps.speed = 0.005, self.pitch_angle = 0.0, self.roll_angle = 0.0, self.yaw_angle = 0.0
2024-02-08 21:01:27.205200: self.boat.gps.time='2024-02-08T21:01:26.000Z', self.flap.relative_angle = 124, self.wingsail.absolute_angle = 359.912109375, self.app_wind_magnitude = 0.0, self.app_wind_angle = 177.00880432128906, self.gps.lat = 29.720855, self.gps.lon = -95.401873333, self.gps.speed = 0.005, self.pitch_angle = 0.0, self.roll_angle = 0.0, self.yaw_angle = 0.0
2024-02-08 21:01:27.303573: self.boat.gps.time='2024-02-08T21:01:26.000Z', self.flap.relative_angle = 124, self.wingsail.absolute_angle = 0.087890625, self.app_wind_magnitude = 0.0, self.app_wind_angle = 177.00880432128906, self.gps.lat = 29.720855, self.gps.lon = -95.401873333, self.gps.speed = 0.005, self.pitch_angle = 0.0, self.roll_angle = 0.0, self.yaw_angle = 0.0
2024-02-08 21:01:27.401861: self.boat.gps.time='2024-02-08T21:01:26.000Z', self.flap.relative_angle = 124, self.wingsail.absolute_angle = 359.82421875, self.app_wind_magnitude = 0.0, self.app_wind_angle = 176.65689086914062, self.gps.lat = 29.720855, self.gps.lon = -95.401873333, self.gps.speed = 0.005, self.pitch_angle = 0.0, self.roll_angle = 0.0, self.yaw_angle = 0.0
2024-02-08 21:01:27.500104: self.boat.gps.time='2024-02-08T21:01:26.000Z', self.flap.relative_angle = 124, self.wingsail.absolute_angle = 359.912109375, self.app_wind_magnitude = 0.0, self.app_wind_angle = 176.65689086914062, self.gps.lat = 29.720855, self.gps.lon = -95.401873333, self.gps.speed = 0.005, self.pitch_angle = 0.0, self.roll_angle = 0.0, self.yaw_angle = 0.0
2024-02-08 21:01:27.598233: self.boat.gps.time='2024-02-08T21:01:26.000Z', self.flap.relative_angle = 124, self.wingsail.absolute_angle = 0.263671875, self.app_wind_magnitude = 0.0, self.app_wind_angle = 177.36070251464844, self.gps.lat = 29.720855, self.gps.lon = -95.401873333, self.gps.speed = 0.005, self.pitch_angle = 0.0, self.roll_angle = 0.0, self.yaw_angle = 0.0
2024-02-08 21:01:27.696553: self.boat.gps.time='2024-02-08T21:01:26.000Z', self.flap.relative_angle = 124, self.wingsail.absolute_angle = 359.736328125, self.app_wind_magnitude = 0.0, self.app_wind_angle = 178.4164276123047, self.gps.lat = 29.720855, self.gps.lon = -95.401873333, self.gps.speed = 0.005, self.pitch_angle = 0.0, self.roll_angle = 0.0, self.yaw_angle = 0.0
2024-02-08 21:01:27.794889: self.boat.gps.time='2024-02-08T21:01:26.000Z', self.flap.relative_angle = 124, self.wingsail.absolute_angle = 359.912109375, self.app_wind_magnitude = 0.0, self.app_wind_angle = 178.76832580566406, self.gps.lat = 29.720855, self.gps.lon = -95.401873333, self.gps.speed = 0.005, self.pitch_angle = 0.0, self.roll_angle = 0.0, self.yaw_angle = 0.0
2024-02-08 21:01:27.893077: self.boat.gps.time='2024-02-08T21:01:26.000Z', self.flap.relative_angle = 124, self.wingsail.absolute_angle = 359.912109375, self.app_wind_magnitude = 0.0, self.app_wind_angle = 178.4164276123047, self.gps.lat = 29.720855, self.gps.lon = -95.401873333, self.gps.speed = 0.005, self.pitch_angle = 0.0, self.roll_angle = 0.0, self.yaw_angle = 0.0
2024-02-08 21:01:27.991802: self.boat.gps.time='2024-02-08T21:01:27.000Z', self.flap.relative_angle = 124, self.wingsail.absolute_angle = 0.3515625, self.app_wind_magnitude = 0.0, self.app_wind_angle = 178.76832580566406, self.gps.lat = 29.720855, self.gps.lon = -95.401873333, self.gps.speed = 0.015, self.pitch_angle = 0.0, self.roll_angle = 0.0, self.yaw_angle = 0.0
2024-02-08 21:01:28.085755: self.boat.gps.time='2024-02-08T21:01:27.000Z', self.flap.relative_angle = 124, self.wingsail.absolute_angle = 359.560546875, self.app_wind_magnitude = 0.0, self.app_wind_angle = 178.4164276123047, self.gps.lat = 29.720855, self.gps.lon = -95.401873333, self.gps.speed = 0.015, self.pitch_angle = 0.0, self.roll_angle = 0.0, self.yaw_angle = 0.0
2024-02-08 21:01:28.183192: self.boat.gps.time='2024-02-08T21:01:27.000Z', self.flap.relative_angle = 124, self.wingsail.absolute_angle = 0.087890625, self.app_wind_magnitude = 0.0, self.app_wind_angle = 178.4164276123047, self.gps.lat = 29.720855, self.gps.lon = -95.401873333, self.gps.speed = 0.015, self.pitch_angle = 0.0, self.roll_angle = 0.0, self.yaw_angle = 0.0
2024-02-08 21:01:28.281207: self.boat.gps.time='2024-02-08T21:01:27.000Z', self.flap.relative_angle = 124, self.wingsail.absolute_angle = 0.263671875, self.app_wind_magnitude = 0.0, self.app_wind_angle = 178.06451416015625, self.gps.lat = 29.720855, self.gps.lon = -95.401873333, self.gps.speed = 0.015, self.pitch_angle = 0.0, self.roll_angle = 0.0, self.yaw_angle = 0.0
2024-02-08 21:01:28.376075: self.boat.gps.time='2024-02-08T21:01:27.000Z', self.flap.relative_angle = 124, self.wingsail.absolute_angle = 359.384765625, self.app_wind_magnitude = 0.0, self.app_wind_angle = 179.8240509033203, self.gps.lat = 29.720855, self.gps.lon = -95.401873333, self.gps.speed = 0.015, self.pitch_angle = 0.0, self.roll_angle = 0.0, self.yaw_angle = 0.0
2024-02-08 21:01:28.474138: self.boat.gps.time='2024-02-08T21:01:27.000Z', self.flap.relative_angle = 124, self.wingsail.absolute_angle = 0.087890625, self.app_wind_magnitude = 0.0, self.app_wind_angle = 178.76832580566406, self.gps.lat = 29.720855, self.gps.lon = -95.401873333, self.gps.speed = 0.015, self.pitch_angle = 0.0, self.roll_angle = 0.0, self.yaw_angle = 0.0
2024-02-08 21:01:28.572234: self.boat.gps.time='2024-02-08T21:01:27.000Z', self.flap.relative_angle = 124, self.wingsail.absolute_angle = 0.3515625, self.app_wind_magnitude = 0.0, self.app_wind_angle = 179.47213745117188, self.gps.lat = 29.720855, self.gps.lon = -95.401873333, self.gps.speed = 0.015, self.pitch_angle = 0.0, self.roll_angle = 0.0, self.yaw_angle = 0.0
2024-02-08 21:01:28.670376: self.boat.gps.time='2024-02-08T21:01:27.000Z', self.flap.relative_angle = 124, self.wingsail.absolute_angle = 359.384765625, self.app_wind_magnitude = 0.0, self.app_wind_angle = 178.76832580566406, self.gps.lat = 29.720855, self.gps.lon = -95.401873333, self.gps.speed = 0.015, self.pitch_angle = 0.0, self.roll_angle = 0.0, self.yaw_angle = 0.0
2024-02-08 21:01:28.768706: self.boat.gps.time='2024-02-08T21:01:27.000Z', self.flap.relative_angle = 124, self.wingsail.absolute_angle = 359.736328125, self.app_wind_magnitude = 0.0, self.app_wind_angle = 179.47213745117188, self.gps.lat = 29.720855, self.gps.lon = -95.401873333, self.gps.speed = 0.015, self.pitch_angle = 0.0, self.roll_angle = 0.0, self.yaw_angle = 0.0
2024-02-08 21:01:28.867013: self.boat.gps.time='2024-02-08T21:01:27.000Z', self.flap.relative_angle = 124, self.wingsail.absolute_angle = 359.47265625, self.app_wind_magnitude = 0.0, self.app_wind_angle = 179.47213745117188, self.gps.lat = 29.720855, self.gps.lon = -95.401873333, self.gps.speed = 0.015, self.pitch_angle = 0.0, self.roll_angle = 0.0, self.yaw_angle = 0.0
2024-02-08 21:01:28.965309: self.boat.gps.time='2024-02-08T21:01:27.000Z', self.flap.relative_angle = 124, self.wingsail.absolute_angle = 359.560546875, self.app_wind_magnitude = 0.0, self.app_wind_angle = 179.1202392578125, self.gps.lat = 29.720855, self.gps.lon = -95.401873333, self.gps.speed = 0.015, self.pitch_angle = 0.0, self.roll_angle = 0.0, self.yaw_angle = 0.0
2024-02-08 21:01:29.063000: self.boat.gps.time='2024-02-08T21:01:28.000Z', self.flap.relative_angle = 124, self.wingsail.absolute_angle = 359.6484375, self.app_wind_magnitude = 0.0, self.app_wind_angle = 179.47213745117188, self.gps.lat = 29.720855, self.gps.lon = -95.401873333, self.gps.speed = 0.0, self.pitch_angle = 0.0, self.roll_angle = 0.0, self.yaw_angle = 0.0
2024-02-08 21:01:29.160338: self.boat.gps.time='2024-02-08T21:01:28.000Z', self.flap.relative_angle = 124, self.wingsail.absolute_angle = 360.0, self.app_wind_magnitude = 0.0, self.app_wind_angle = 178.4164276123047, self.gps.lat = 29.720855, self.gps.lon = -95.401873333, self.gps.speed = 0.0, self.pitch_angle = 0.0, self.roll_angle = 0.0, self.yaw_angle = 0.0
2024-02-08 21:01:29.258440: self.boat.gps.time='2024-02-08T21:01:28.000Z', self.flap.relative_angle = 124, self.wingsail.absolute_angle = 0.52734375, self.app_wind_magnitude = 0.0, self.app_wind_angle = 180.52786254882812, self.gps.lat = 29.720855, self.gps.lon = -95.401873333, self.gps.speed = 0.0, self.pitch_angle = 0.0, self.roll_angle = 0.0, self.yaw_angle = 0.0
2024-02-08 21:01:29.356701: self.boat.gps.time='2024-02-08T21:01:28.000Z', self.flap.relative_angle = 124, self.wingsail.absolute_angle = 359.912109375, self.app_wind_magnitude = 0.0, self.app_wind_angle = 180.52786254882812, self.gps.lat = 29.720855, self.gps.lon = -95.401873333, self.gps.speed = 0.0, self.pitch_angle = 0.0, self.roll_angle = 0.0, self.yaw_angle = 0.0
2024-02-08 21:01:29.455062: self.boat.gps.time='2024-02-08T21:01:28.000Z', self.flap.relative_angle = 124, self.wingsail.absolute_angle = 359.82421875, self.app_wind_magnitude = 0.0, self.app_wind_angle = 180.52786254882812, self.gps.lat = 29.720855, self.gps.lon = -95.401873333, self.gps.speed = 0.0, self.pitch_angle = 0.0, self.roll_angle = 0.0, self.yaw_angle = 0.0
2024-02-08 21:01:29.553410: self.boat.gps.time='2024-02-08T21:01:28.000Z', self.flap.relative_angle = 124, self.wingsail.absolute_angle = 359.82421875, self.app_wind_magnitude = 0.0, self.app_wind_angle = 180.52786254882812, self.gps.lat = 29.720855, self.gps.lon = -95.401873333, self.gps.speed = 0.0, self.pitch_angle = 0.0, self.roll_angle = 0.0, self.yaw_angle = 0.0
2024-02-08 21:01:29.651680: self.boat.gps.time='2024-02-08T21:01:28.000Z', self.flap.relative_angle = 124, self.wingsail.absolute_angle = 359.736328125, self.app_wind_magnitude = 0.0, self.app_wind_angle = 180.1759490966797, self.gps.lat = 29.720855, self.gps.lon = -95.401873333, self.gps.speed = 0.0, self.pitch_angle = 0.0, self.roll_angle = 0.0, self.yaw_angle = 0.0
2024-02-08 21:01:29.750083: self.boat.gps.time='2024-02-08T21:01:28.000Z', self.flap.relative_angle = 124, self.wingsail.absolute_angle = 359.82421875, self.app_wind_magnitude = 0.0, self.app_wind_angle = 180.52786254882812, self.gps.lat = 29.720855, self.gps.lon = -95.401873333, self.gps.speed = 0.0, self.pitch_angle = 0.0, self.roll_angle = 0.0, self.yaw_angle = 0.0
2024-02-08 21:01:29.848321: self.boat.gps.time='2024-02-08T21:01:28.000Z', self.flap.relative_angle = 124, self.wingsail.absolute_angle = 359.82421875, self.app_wind_magnitude = 0.0, self.app_wind_angle = 181.23167419433594, self.gps.lat = 29.720855, self.gps.lon = -95.401873333, self.gps.speed = 0.0, self.pitch_angle = 0.0, self.roll_angle = 0.0, self.yaw_angle = 0.0
2024-02-08 21:01:29.946520: self.boat.gps.time='2024-02-08T21:01:28.000Z', self.flap.relative_angle = 124, self.wingsail.absolute_angle = 360.0, self.app_wind_magnitude = 0.0, self.app_wind_angle = 181.5835723876953, self.gps.lat = 29.720855, self.gps.lon = -95.401873333, self.gps.speed = 0.0, self.pitch_angle = 0.0, self.roll_angle = 0.0, self.yaw_angle = 0.0
2024-02-08 21:01:30.044937: self.boat.gps.time='2024-02-08T21:01:28.000Z', self.flap.relative_angle = 124, self.wingsail.absolute_angle = 359.560546875, self.app_wind_magnitude = 0.0, self.app_wind_angle = 181.23167419433594, self.gps.lat = 29.720855, self.gps.lon = -95.401873333, self.gps.speed = 0.0, self.pitch_angle = 0.0, self.roll_angle = 0.0, self.yaw_angle = 0.0
2024-02-08 21:01:30.143760: self.boat.gps.time='2024-02-08T21:01:29.000Z', self.flap.relative_angle = 124, self.wingsail.absolute_angle = 359.384765625, self.app_wind_magnitude = 0.0, self.app_wind_angle = 181.23167419433594, self.gps.lat = 29.720855, self.gps.lon = -95.401873333, self.gps.speed = 0.01, self.pitch_angle = 0.0, self.roll_angle = 0.0, self.yaw_angle = 0.0
2024-02-08 21:01:30.241843: self.boat.gps.time='2024-02-08T21:01:29.000Z', self.flap.relative_angle = 124, self.wingsail.absolute_angle = 0.263671875, self.app_wind_magnitude = 0.0, self.app_wind_angle = 181.5835723876953, self.gps.lat = 29.720855, self.gps.lon = -95.401873333, self.gps.speed = 0.01, self.pitch_angle = 0.0, self.roll_angle = 0.0, self.yaw_angle = 0.0
2024-02-08 21:01:30.339393: self.boat.gps.time='2024-02-08T21:01:29.000Z', self.flap.relative_angle = 124, self.wingsail.absolute_angle = 359.033203125, self.app_wind_magnitude = 0.0, self.app_wind_angle = 180.1759490966797, self.gps.lat = 29.720855, self.gps.lon = -95.401873333, self.gps.speed = 0.01, self.pitch_angle = 0.0, self.roll_angle = 0.0, self.yaw_angle = 0.0
2024-02-08 21:01:30.436956: self.boat.gps.time='2024-02-08T21:01:29.000Z', self.flap.relative_angle = 124, self.wingsail.absolute_angle = 359.912109375, self.app_wind_magnitude = 0.0, self.app_wind_angle = 180.52786254882812, self.gps.lat = 29.720855, self.gps.lon = -95.401873333, self.gps.speed = 0.01, self.pitch_angle = 0.0, self.roll_angle = 0.0, self.yaw_angle = 0.0
2024-02-08 21:01:30.535018: self.boat.gps.time='2024-02-08T21:01:29.000Z', self.flap.relative_angle = 124, self.wingsail.absolute_angle = 0.087890625, self.app_wind_magnitude = 0.0, self.app_wind_angle = 187.21408081054688, self.gps.lat = 29.720855, self.gps.lon = -95.401873333, self.gps.speed = 0.01, self.pitch_angle = 0.0, self.roll_angle = 0.0, self.yaw_angle = 0.0
2024-02-08 21:01:30.633303: self.boat.gps.time='2024-02-08T21:01:29.000Z', self.flap.relative_angle = 124, self.wingsail.absolute_angle = 359.296875, self.app_wind_magnitude = 0.0, self.app_wind_angle = 187.21408081054688, self.gps.lat = 29.720855, self.gps.lon = -95.401873333, self.gps.speed = 0.01, self.pitch_angle = 0.0, self.roll_angle = 0.0, self.yaw_angle = 0.0
2024-02-08 21:01:30.731475: self.boat.gps.time='2024-02-08T21:01:29.000Z', self.flap.relative_angle = 124, self.wingsail.absolute_angle = 359.296875, self.app_wind_magnitude = 0.0, self.app_wind_angle = 187.21408081054688, self.gps.lat = 29.720855, self.gps.lon = -95.401873333, self.gps.speed = 0.01, self.pitch_angle = 0.0, self.roll_angle = 0.0, self.yaw_angle = 0.0
2024-02-08 21:01:30.829659: self.boat.gps.time='2024-02-08T21:01:29.000Z', self.flap.relative_angle = 124, self.wingsail.absolute_angle = 359.47265625, self.app_wind_magnitude = 0.0, self.app_wind_angle = 186.8621826171875, self.gps.lat = 29.720855, self.gps.lon = -95.401873333, self.gps.speed = 0.01, self.pitch_angle = 0.0, self.roll_angle = 0.0, self.yaw_angle = 0.0
2024-02-08 21:01:30.928035: self.boat.gps.time='2024-02-08T21:01:29.000Z', self.flap.relative_angle = 124, self.wingsail.absolute_angle = 358.505859375, self.app_wind_magnitude = 0.0, self.app_wind_angle = 187.21408081054688, self.gps.lat = 29.720855, self.gps.lon = -95.401873333, self.gps.speed = 0.01, self.pitch_angle = 0.0, self.roll_angle = 0.0, self.yaw_angle = 0.0
2024-02-08 21:01:31.026358: self.boat.gps.time='2024-02-08T21:01:29.000Z', self.flap.relative_angle = 124, self.wingsail.absolute_angle = 359.560546875, self.app_wind_magnitude = 0.0, self.app_wind_angle = 186.8621826171875, self.gps.lat = 29.720855, self.gps.lon = -95.401873333, self.gps.speed = 0.01, self.pitch_angle = 0.0, self.roll_angle = 0.0, self.yaw_angle = 0.0
2024-02-08 21:01:31.124671: self.boat.gps.time='2024-02-08T21:01:29.000Z', self.flap.relative_angle = 124, self.wingsail.absolute_angle = 360.0, self.app_wind_magnitude = 0.0, self.app_wind_angle = 186.8621826171875, self.gps.lat = 29.720855, self.gps.lon = -95.401873333, self.gps.speed = 0.01, self.pitch_angle = 0.0, self.roll_angle = 0.0, self.yaw_angle = 0.0
2024-02-08 21:01:31.221805: self.boat.gps.time='2024-02-08T21:01:30.000Z', self.flap.relative_angle = 124, self.wingsail.absolute_angle = 358.857421875, self.app_wind_magnitude = 0.0, self.app_wind_angle = 187.21408081054688, self.gps.lat = 29.720855, self.gps.lon = -95.401873333, self.gps.speed = 0.01, self.pitch_angle = 0.0, self.roll_angle = 0.0, self.yaw_angle = 0.0
2024-02-08 21:01:31.319001: self.boat.gps.time='2024-02-08T21:01:30.000Z', self.flap.relative_angle = 124, self.wingsail.absolute_angle = 359.736328125, self.app_wind_magnitude = 0.0, self.app_wind_angle = 195.30792236328125, self.gps.lat = 29.720855, self.gps.lon = -95.401873333, self.gps.speed = 0.01, self.pitch_angle = 0.0, self.roll_angle = 0.0, self.yaw_angle = 0.0
2024-02-08 21:01:31.416171: self.boat.gps.time='2024-02-08T21:01:30.000Z', self.flap.relative_angle = 124, self.wingsail.absolute_angle = 360.0, self.app_wind_magnitude = 0.0, self.app_wind_angle = 195.30792236328125, self.gps.lat = 29.720855, self.gps.lon = -95.401873333, self.gps.speed = 0.01, self.pitch_angle = 0.0, self.roll_angle = 0.0, self.yaw_angle = 0.0
2024-02-08 21:01:31.513395: self.boat.gps.time='2024-02-08T21:01:30.000Z', self.flap.relative_angle = 124, self.wingsail.absolute_angle = 359.033203125, self.app_wind_magnitude = 0.0, self.app_wind_angle = 194.9560089111328, self.gps.lat = 29.720855, self.gps.lon = -95.401873333, self.gps.speed = 0.01, self.pitch_angle = 0.0, self.roll_angle = 0.0, self.yaw_angle = 0.0
2024-02-08 21:01:31.611760: self.boat.gps.time='2024-02-08T21:01:30.000Z', self.flap.relative_angle = 124, self.wingsail.absolute_angle = 359.12109375, self.app_wind_magnitude = 0.0, self.app_wind_angle = 195.30792236328125, self.gps.lat = 29.720855, self.gps.lon = -95.401873333, self.gps.speed = 0.01, self.pitch_angle = 0.0, self.roll_angle = 0.0, self.yaw_angle = 0.0
2024-02-08 21:01:31.711418: self.boat.gps.time='2024-02-08T21:01:30.000Z', self.flap.relative_angle = 124, self.wingsail.absolute_angle = 358.9453125, self.app_wind_magnitude = 0.0, self.app_wind_angle = 195.30792236328125, self.gps.lat = 29.720855, self.gps.lon = -95.401873333, self.gps.speed = 0.01, self.pitch_angle = 0.0, self.roll_angle = 0.0, self.yaw_angle = 0.0
2024-02-08 21:01:31.809681: self.boat.gps.time='2024-02-08T21:01:30.000Z', self.flap.relative_angle = 124, self.wingsail.absolute_angle = 359.033203125, self.app_wind_magnitude = 0.0, self.app_wind_angle = 194.9560089111328, self.gps.lat = 29.720855, self.gps.lon = -95.401873333, self.gps.speed = 0.01, self.pitch_angle = 0.0, self.roll_angle = 0.0, self.yaw_angle = 0.0
2024-02-08 21:01:31.903519: self.boat.gps.time='2024-02-08T21:01:30.000Z', self.flap.relative_angle = 124, self.wingsail.absolute_angle = 359.736328125, self.app_wind_magnitude = 0.0, self.app_wind_angle = 194.9560089111328, self.gps.lat = 29.720855, self.gps.lon = -95.401873333, self.gps.speed = 0.01, self.pitch_angle = 0.0, self.roll_angle = 0.0, self.yaw_angle = 0.0
2024-02-08 21:01:32.000749: self.boat.gps.time='2024-02-08T21:01:30.000Z', self.flap.relative_angle = 124, self.wingsail.absolute_angle = 359.736328125, self.app_wind_magnitude = 0.0, self.app_wind_angle = 191.08505249023438, self.gps.lat = 29.720855, self.gps.lon = -95.401873333, self.gps.speed = 0.01, self.pitch_angle = 0.0, self.roll_angle = 0.0, self.yaw_angle = 0.0
2024-02-08 21:01:32.098934: self.boat.gps.time='2024-02-08T21:01:30.000Z', self.flap.relative_angle = 124, self.wingsail.absolute_angle = 359.82421875, self.app_wind_magnitude = 0.0, self.app_wind_angle = 178.06451416015625, self.gps.lat = 29.720855, self.gps.lon = -95.401873333, self.gps.speed = 0.01, self.pitch_angle = 0.0, self.roll_angle = 0.0, self.yaw_angle = 0.0
2024-02-08 21:01:32.197270: self.boat.gps.time='2024-02-08T21:01:30.000Z', self.flap.relative_angle = 124, self.wingsail.absolute_angle = 359.912109375, self.app_wind_magnitude = 0.0, self.app_wind_angle = 177.71261596679688, self.gps.lat = 29.720855, self.gps.lon = -95.401873333, self.gps.speed = 0.01, self.pitch_angle = 0.0, self.roll_angle = 0.0, self.yaw_angle = 0.0
2024-02-08 21:01:32.294994: self.boat.gps.time='2024-02-08T21:01:31.000Z', self.flap.relative_angle = 124, self.wingsail.absolute_angle = 358.857421875, self.app_wind_magnitude = 0.0, self.app_wind_angle = 177.00880432128906, self.gps.lat = 29.720855, self.gps.lon = -95.401873333, self.gps.speed = 0.015, self.pitch_angle = 0.0, self.roll_angle = 0.0, self.yaw_angle = 0.0
2024-02-08 21:01:32.392081: self.boat.gps.time='2024-02-08T21:01:31.000Z', self.flap.relative_angle = 124, self.wingsail.absolute_angle = 359.6484375, self.app_wind_magnitude = 0.0, self.app_wind_angle = 178.06451416015625, self.gps.lat = 29.720855, self.gps.lon = -95.401873333, self.gps.speed = 0.015, self.pitch_angle = 0.0, self.roll_angle = 0.0, self.yaw_angle = 0.0
2024-02-08 21:01:32.490337: self.boat.gps.time='2024-02-08T21:01:31.000Z', self.flap.relative_angle = 124, self.wingsail.absolute_angle = 359.208984375, self.app_wind_magnitude = 0.0, self.app_wind_angle = 177.71261596679688, self.gps.lat = 29.720855, self.gps.lon = -95.401873333, self.gps.speed = 0.015, self.pitch_angle = 0.0, self.roll_angle = 0.0, self.yaw_angle = 0.0
2024-02-08 21:01:32.588768: self.boat.gps.time='2024-02-08T21:01:31.000Z', self.flap.relative_angle = 124, self.wingsail.absolute_angle = 359.12109375, self.app_wind_magnitude = 0.0, self.app_wind_angle = 177.36070251464844, self.gps.lat = 29.720855, self.gps.lon = -95.401873333, self.gps.speed = 0.015, self.pitch_angle = 0.0, self.roll_angle = 0.0, self.yaw_angle = 0.0
2024-02-08 21:01:32.687197: self.boat.gps.time='2024-02-08T21:01:31.000Z', self.flap.relative_angle = 124, self.wingsail.absolute_angle = 358.9453125, self.app_wind_magnitude = 0.0, self.app_wind_angle = 178.06451416015625, self.gps.lat = 29.720855, self.gps.lon = -95.401873333, self.gps.speed = 0.015, self.pitch_angle = 0.0, self.roll_angle = 0.0, self.yaw_angle = 0.0
2024-02-08 21:01:32.785584: self.boat.gps.time='2024-02-08T21:01:31.000Z', self.flap.relative_angle = 124, self.wingsail.absolute_angle = 359.560546875, self.app_wind_magnitude = 0.0, self.app_wind_angle = 174.5454559326172, self.gps.lat = 29.720855, self.gps.lon = -95.401873333, self.gps.speed = 0.015, self.pitch_angle = 0.0, self.roll_angle = 0.0, self.yaw_angle = 0.0
2024-02-08 21:01:32.883806: self.boat.gps.time='2024-02-08T21:01:31.000Z', self.flap.relative_angle = 124, self.wingsail.absolute_angle = 359.296875, self.app_wind_magnitude = 0.0, self.app_wind_angle = 174.5454559326172, self.gps.lat = 29.720855, self.gps.lon = -95.401873333, self.gps.speed = 0.015, self.pitch_angle = 0.0, self.roll_angle = 0.0, self.yaw_angle = 0.0
2024-02-08 21:01:32.978543: self.boat.gps.time='2024-02-08T21:01:31.000Z', self.flap.relative_angle = 124, self.wingsail.absolute_angle = 359.296875, self.app_wind_magnitude = 0.0, self.app_wind_angle = 174.5454559326172, self.gps.lat = 29.720855, self.gps.lon = -95.401873333, self.gps.speed = 0.015, self.pitch_angle = 0.0, self.roll_angle = 0.0, self.yaw_angle = 0.0
2024-02-08 21:01:33.076769: self.boat.gps.time='2024-02-08T21:01:31.000Z', self.flap.relative_angle = 124, self.wingsail.absolute_angle = 359.82421875, self.app_wind_magnitude = 0.0, self.app_wind_angle = 174.89736938476562, self.gps.lat = 29.720855, self.gps.lon = -95.401873333, self.gps.speed = 0.015, self.pitch_angle = 0.0, self.roll_angle = 0.0, self.yaw_angle = 0.0
2024-02-08 21:01:33.170927: self.boat.gps.time='2024-02-08T21:01:31.000Z', self.flap.relative_angle = 124, self.wingsail.absolute_angle = 360.0, self.app_wind_magnitude = 0.0, self.app_wind_angle = 174.5454559326172, self.gps.lat = 29.720855, self.gps.lon = -95.401873333, self.gps.speed = 0.015, self.pitch_angle = 0.0, self.roll_angle = 0.0, self.yaw_angle = 0.0
2024-02-08 21:01:33.269288: self.boat.gps.time='2024-02-08T21:01:31.000Z', self.flap.relative_angle = 124, self.wingsail.absolute_angle = 359.912109375, self.app_wind_magnitude = 0.0, self.app_wind_angle = 175.249267578125, self.gps.lat = 29.720855, self.gps.lon = -95.401873333, self.gps.speed = 0.015, self.pitch_angle = 0.0, self.roll_angle = 0.0, self.yaw_angle = 0.0
2024-02-08 21:01:33.366820: self.boat.gps.time='2024-02-08T21:01:32.000Z', self.flap.relative_angle = 124, self.wingsail.absolute_angle = 359.47265625, self.app_wind_magnitude = 0.0, self.app_wind_angle = 172.7859344482422, self.gps.lat = 29.720855, self.gps.lon = -95.401873333, self.gps.speed = 0.01, self.pitch_angle = 0.0, self.roll_angle = 0.0, self.yaw_angle = 0.0
2024-02-08 21:01:33.464434: self.boat.gps.time='2024-02-08T21:01:32.000Z', self.flap.relative_angle = 124, self.wingsail.absolute_angle = 359.736328125, self.app_wind_magnitude = 0.0, self.app_wind_angle = 192.84457397460938, self.gps.lat = 29.720855, self.gps.lon = -95.401873333, self.gps.speed = 0.01, self.pitch_angle = 0.0, self.roll_angle = 0.0, self.yaw_angle = 0.0
2024-02-08 21:01:33.562049: self.boat.gps.time='2024-02-08T21:01:32.000Z', self.flap.relative_angle = 124, self.wingsail.absolute_angle = 359.208984375, self.app_wind_magnitude = 0.0, self.app_wind_angle = 192.84457397460938, self.gps.lat = 29.720855, self.gps.lon = -95.401873333, self.gps.speed = 0.01, self.pitch_angle = 0.0, self.roll_angle = 0.0, self.yaw_angle = 0.0
2024-02-08 21:01:33.660303: self.boat.gps.time='2024-02-08T21:01:32.000Z', self.flap.relative_angle = 124, self.wingsail.absolute_angle = 359.560546875, self.app_wind_magnitude = 0.0, self.app_wind_angle = 192.49267578125, self.gps.lat = 29.720855, self.gps.lon = -95.401873333, self.gps.speed = 0.01, self.pitch_angle = 0.0, self.roll_angle = 0.0, self.yaw_angle = 0.0
2024-02-08 21:01:33.758494: self.boat.gps.time='2024-02-08T21:01:32.000Z', self.flap.relative_angle = 124, self.wingsail.absolute_angle = 359.208984375, self.app_wind_magnitude = 0.0, self.app_wind_angle = 192.14076232910156, self.gps.lat = 29.720855, self.gps.lon = -95.401873333, self.gps.speed = 0.01, self.pitch_angle = 0.0, self.roll_angle = 0.0, self.yaw_angle = 0.0
2024-02-08 21:01:33.856798: self.boat.gps.time='2024-02-08T21:01:32.000Z', self.flap.relative_angle = 124, self.wingsail.absolute_angle = 359.736328125, self.app_wind_magnitude = 0.0, self.app_wind_angle = 193.1964874267578, self.gps.lat = 29.720855, self.gps.lon = -95.401873333, self.gps.speed = 0.01, self.pitch_angle = 0.0, self.roll_angle = 0.0, self.yaw_angle = 0.0
2024-02-08 21:01:33.953777: self.boat.gps.time='2024-02-08T21:01:32.000Z', self.flap.relative_angle = 124, self.wingsail.absolute_angle = 359.6484375, self.app_wind_magnitude = 0.0, self.app_wind_angle = 192.84457397460938, self.gps.lat = 29.720855, self.gps.lon = -95.401873333, self.gps.speed = 0.01, self.pitch_angle = 0.0, self.roll_angle = 0.0, self.yaw_angle = 0.0
2024-02-08 21:01:34.051959: self.boat.gps.time='2024-02-08T21:01:32.000Z', self.flap.relative_angle = 124, self.wingsail.absolute_angle = 359.6484375, self.app_wind_magnitude = 0.0, self.app_wind_angle = 192.84457397460938, self.gps.lat = 29.720855, self.gps.lon = -95.401873333, self.gps.speed = 0.01, self.pitch_angle = 0.0, self.roll_angle = 0.0, self.yaw_angle = 0.0
2024-02-08 21:01:34.150150: self.boat.gps.time='2024-02-08T21:01:32.000Z', self.flap.relative_angle = 124, self.wingsail.absolute_angle = 359.6484375, self.app_wind_magnitude = 0.0, self.app_wind_angle = 192.14076232910156, self.gps.lat = 29.720855, self.gps.lon = -95.401873333, self.gps.speed = 0.01, self.pitch_angle = 0.0, self.roll_angle = 0.0, self.yaw_angle = 0.0
2024-02-08 21:01:34.248304: self.boat.gps.time='2024-02-08T21:01:32.000Z', self.flap.relative_angle = 124, self.wingsail.absolute_angle = 359.560546875, self.app_wind_magnitude = 0.0, self.app_wind_angle = 198.1231689453125, self.gps.lat = 29.720855, self.gps.lon = -95.401873333, self.gps.speed = 0.01, self.pitch_angle = 0.0, self.roll_angle = 0.0, self.yaw_angle = 0.0
2024-02-08 21:01:34.346312: self.boat.gps.time='2024-02-08T21:01:32.000Z', self.flap.relative_angle = 124, self.wingsail.absolute_angle = 0.3515625, self.app_wind_magnitude = 0.0, self.app_wind_angle = 198.1231689453125, self.gps.lat = 29.720855, self.gps.lon = -95.401873333, self.gps.speed = 0.01, self.pitch_angle = 0.0, self.roll_angle = 0.0, self.yaw_angle = 0.0
2024-02-08 21:01:34.446027: self.boat.gps.time='2024-02-08T21:01:33.000Z', self.flap.relative_angle = 124, self.wingsail.absolute_angle = 1.7578125, self.app_wind_magnitude = 0.0, self.app_wind_angle = 198.1231689453125, self.gps.lat = 29.720855, self.gps.lon = -95.401871667, self.gps.speed = 0.005, self.pitch_angle = 0.0, self.roll_angle = 0.0, self.yaw_angle = 0.0
2024-02-08 21:01:34.543032: self.boat.gps.time='2024-02-08T21:01:33.000Z', self.flap.relative_angle = 124, self.wingsail.absolute_angle = 1.40625, self.app_wind_magnitude = 0.0, self.app_wind_angle = 198.1231689453125, self.gps.lat = 29.720855, self.gps.lon = -95.401871667, self.gps.speed = 0.005, self.pitch_angle = 0.0, self.roll_angle = 0.0, self.yaw_angle = 0.0
2024-02-08 21:01:34.640622: self.boat.gps.time='2024-02-08T21:01:33.000Z', self.flap.relative_angle = 124, self.wingsail.absolute_angle = 2.197265625, self.app_wind_magnitude = 0.0, self.app_wind_angle = 198.1231689453125, self.gps.lat = 29.720855, self.gps.lon = -95.401871667, self.gps.speed = 0.005, self.pitch_angle = 0.0, self.roll_angle = 0.0, self.yaw_angle = 0.0
2024-02-08 21:01:34.738750: self.boat.gps.time='2024-02-08T21:01:33.000Z', self.flap.relative_angle = 124, self.wingsail.absolute_angle = 1.494140625, self.app_wind_magnitude = 0.0, self.app_wind_angle = 197.77125549316406, self.gps.lat = 29.720855, self.gps.lon = -95.401871667, self.gps.speed = 0.005, self.pitch_angle = 0.0, self.roll_angle = 0.0, self.yaw_angle = 0.0
2024-02-08 21:01:34.836879: self.boat.gps.time='2024-02-08T21:01:33.000Z', self.flap.relative_angle = 124, self.wingsail.absolute_angle = 2.4609375, self.app_wind_magnitude = 0.0, self.app_wind_angle = 198.1231689453125, self.gps.lat = 29.720855, self.gps.lon = -95.401871667, self.gps.speed = 0.005, self.pitch_angle = 0.0, self.roll_angle = 0.0, self.yaw_angle = 0.0
2024-02-08 21:01:34.934952: self.boat.gps.time='2024-02-08T21:01:33.000Z', self.flap.relative_angle = 124, self.wingsail.absolute_angle = 1.40625, self.app_wind_magnitude = 0.0, self.app_wind_angle = 197.06744384765625, self.gps.lat = 29.720855, self.gps.lon = -95.401871667, self.gps.speed = 0.005, self.pitch_angle = 0.0, self.roll_angle = 0.0, self.yaw_angle = 0.0
2024-02-08 21:01:35.033104: self.boat.gps.time='2024-02-08T21:01:33.000Z', self.flap.relative_angle = 124, self.wingsail.absolute_angle = 1.40625, self.app_wind_magnitude = 0.0, self.app_wind_angle = 197.06744384765625, self.gps.lat = 29.720855, self.gps.lon = -95.401871667, self.gps.speed = 0.005, self.pitch_angle = 0.0, self.roll_angle = 0.0, self.yaw_angle = 0.0
2024-02-08 21:01:35.130518: self.boat.gps.time='2024-02-08T21:01:33.000Z', self.flap.relative_angle = 124, self.wingsail.absolute_angle = 0.87890625, self.app_wind_magnitude = 0.0, self.app_wind_angle = 196.71554565429688, self.gps.lat = 29.720855, self.gps.lon = -95.401871667, self.gps.speed = 0.005, self.pitch_angle = 0.0, self.roll_angle = 0.0, self.yaw_angle = 0.0
2024-02-08 21:01:35.228482: self.boat.gps.time='2024-02-08T21:01:33.000Z', self.flap.relative_angle = 124, self.wingsail.absolute_angle = 2.197265625, self.app_wind_magnitude = 0.0, self.app_wind_angle = 197.06744384765625, self.gps.lat = 29.720855, self.gps.lon = -95.401871667, self.gps.speed = 0.005, self.pitch_angle = 0.0, self.roll_angle = 0.0, self.yaw_angle = 0.0
2024-02-08 21:01:35.326446: self.boat.gps.time='2024-02-08T21:01:33.000Z', self.flap.relative_angle = 124, self.wingsail.absolute_angle = 1.7578125, self.app_wind_magnitude = 0.0, self.app_wind_angle = 197.06744384765625, self.gps.lat = 29.720855, self.gps.lon = -95.401871667, self.gps.speed = 0.005, self.pitch_angle = 0.0, self.roll_angle = 0.0, self.yaw_angle = 0.0
2024-02-08 21:01:35.424464: self.boat.gps.time='2024-02-08T21:01:33.000Z', self.flap.relative_angle = 124, self.wingsail.absolute_angle = 2.109375, self.app_wind_magnitude = 0.0, self.app_wind_angle = 196.71554565429688, self.gps.lat = 29.720855, self.gps.lon = -95.401871667, self.gps.speed = 0.005, self.pitch_angle = 0.0, self.roll_angle = 0.0, self.yaw_angle = 0.0
2024-02-08 21:01:35.522585: self.boat.gps.time='2024-02-08T21:01:34.000Z', self.flap.relative_angle = 124, self.wingsail.absolute_angle = 1.494140625, self.app_wind_magnitude = 0.0, self.app_wind_angle = 196.71554565429688, self.gps.lat = 29.720855, self.gps.lon = -95.401871667, self.gps.speed = 0.057, self.pitch_angle = 0.0, self.roll_angle = 0.0, self.yaw_angle = 0.0
2024-02-08 21:01:35.620749: self.boat.gps.time='2024-02-08T21:01:34.000Z', self.flap.relative_angle = 124, self.wingsail.absolute_angle = 1.58203125, self.app_wind_magnitude = 0.0, self.app_wind_angle = 199.53079223632812, self.gps.lat = 29.720855, self.gps.lon = -95.401871667, self.gps.speed = 0.057, self.pitch_angle = 0.0, self.roll_angle = 0.0, self.yaw_angle = 0.0
2024-02-08 21:01:35.718885: self.boat.gps.time='2024-02-08T21:01:34.000Z', self.flap.relative_angle = 124, self.wingsail.absolute_angle = 2.197265625, self.app_wind_magnitude = 0.0, self.app_wind_angle = 201.29031372070312, self.gps.lat = 29.720855, self.gps.lon = -95.401871667, self.gps.speed = 0.057, self.pitch_angle = 0.0, self.roll_angle = 0.0, self.yaw_angle = 0.0
2024-02-08 21:01:35.817143: self.boat.gps.time='2024-02-08T21:01:34.000Z', self.flap.relative_angle = 124, self.wingsail.absolute_angle = 1.845703125, self.app_wind_magnitude = 0.0, self.app_wind_angle = 201.29031372070312, self.gps.lat = 29.720855, self.gps.lon = -95.401871667, self.gps.speed = 0.057, self.pitch_angle = 0.0, self.roll_angle = 0.0, self.yaw_angle = 0.0
2024-02-08 21:01:35.914955: self.boat.gps.time='2024-02-08T21:01:34.000Z', self.flap.relative_angle = 124, self.wingsail.absolute_angle = 2.548828125, self.app_wind_magnitude = 0.0, self.app_wind_angle = 199.8826904296875, self.gps.lat = 29.720855, self.gps.lon = -95.401871667, self.gps.speed = 0.057, self.pitch_angle = 0.0, self.roll_angle = 0.0, self.yaw_angle = 0.0
2024-02-08 21:01:36.013221: self.boat.gps.time='2024-02-08T21:01:34.000Z', self.flap.relative_angle = 124, self.wingsail.absolute_angle = 2.28515625, self.app_wind_magnitude = 0.0, self.app_wind_angle = 200.93841552734375, self.gps.lat = 29.720855, self.gps.lon = -95.401871667, self.gps.speed = 0.057, self.pitch_angle = 0.0, self.roll_angle = 0.0, self.yaw_angle = 0.0
2024-02-08 21:01:36.111495: self.boat.gps.time='2024-02-08T21:01:34.000Z', self.flap.relative_angle = 124, self.wingsail.absolute_angle = 1.845703125, self.app_wind_magnitude = 0.0, self.app_wind_angle = 200.5865020751953, self.gps.lat = 29.720855, self.gps.lon = -95.401871667, self.gps.speed = 0.057, self.pitch_angle = 0.0, self.roll_angle = 0.0, self.yaw_angle = 0.0
2024-02-08 21:01:36.209549: self.boat.gps.time='2024-02-08T21:01:34.000Z', self.flap.relative_angle = 124, self.wingsail.absolute_angle = 2.724609375, self.app_wind_magnitude = 0.0, self.app_wind_angle = 200.93841552734375, self.gps.lat = 29.720855, self.gps.lon = -95.401871667, self.gps.speed = 0.057, self.pitch_angle = 0.0, self.roll_angle = 0.0, self.yaw_angle = 0.0
2024-02-08 21:01:36.307960: self.boat.gps.time='2024-02-08T21:01:34.000Z', self.flap.relative_angle = 124, self.wingsail.absolute_angle = 2.724609375, self.app_wind_magnitude = 0.0, self.app_wind_angle = 200.93841552734375, self.gps.lat = 29.720855, self.gps.lon = -95.401871667, self.gps.speed = 0.057, self.pitch_angle = 0.0, self.roll_angle = 0.0, self.yaw_angle = 0.0
2024-02-08 21:01:36.406251: self.boat.gps.time='2024-02-08T21:01:34.000Z', self.flap.relative_angle = 124, self.wingsail.absolute_angle = 3.251953125, self.app_wind_magnitude = 0.0, self.app_wind_angle = 197.77125549316406, self.gps.lat = 29.720855, self.gps.lon = -95.401871667, self.gps.speed = 0.057, self.pitch_angle = 0.0, self.roll_angle = 0.0, self.yaw_angle = 0.0
2024-02-08 21:01:36.504446: self.boat.gps.time='2024-02-08T21:01:34.000Z', self.flap.relative_angle = 124, self.wingsail.absolute_angle = 2.98828125, self.app_wind_magnitude = 0.0, self.app_wind_angle = 197.4193572998047, self.gps.lat = 29.720855, self.gps.lon = -95.401871667, self.gps.speed = 0.057, self.pitch_angle = 0.0, self.roll_angle = 0.0, self.yaw_angle = 0.0
2024-02-08 21:01:36.603269: self.boat.gps.time='2024-02-08T21:01:35.000Z', self.flap.relative_angle = 124, self.wingsail.absolute_angle = 2.548828125, self.app_wind_magnitude = 0.0, self.app_wind_angle = 197.06744384765625, self.gps.lat = 29.720855, self.gps.lon = -95.401871667, self.gps.speed = 0.01, self.pitch_angle = 0.0, self.roll_angle = 0.0, self.yaw_angle = 0.0
2024-02-08 21:01:36.701809: self.boat.gps.time='2024-02-08T21:01:35.000Z', self.flap.relative_angle = 124, self.wingsail.absolute_angle = 3.33984375, self.app_wind_magnitude = 0.0, self.app_wind_angle = 197.77125549316406, self.gps.lat = 29.720855, self.gps.lon = -95.401871667, self.gps.speed = 0.01, self.pitch_angle = 0.0, self.roll_angle = 0.0, self.yaw_angle = 0.0
2024-02-08 21:01:36.799938: self.boat.gps.time='2024-02-08T21:01:35.000Z', self.flap.relative_angle = 124, self.wingsail.absolute_angle = 2.109375, self.app_wind_magnitude = 0.0, self.app_wind_angle = 198.1231689453125, self.gps.lat = 29.720855, self.gps.lon = -95.401871667, self.gps.speed = 0.01, self.pitch_angle = 0.0, self.roll_angle = 0.0, self.yaw_angle = 0.0
2024-02-08 21:01:36.893507: self.boat.gps.time='2024-02-08T21:01:35.000Z', self.flap.relative_angle = 124, self.wingsail.absolute_angle = 2.109375, self.app_wind_magnitude = 0.0, self.app_wind_angle = 197.77125549316406, self.gps.lat = 29.720855, self.gps.lon = -95.401871667, self.gps.speed = 0.01, self.pitch_angle = 0.0, self.roll_angle = 0.0, self.yaw_angle = 0.0
2024-02-08 21:01:36.991648: self.boat.gps.time='2024-02-08T21:01:35.000Z', self.flap.relative_angle = 124, self.wingsail.absolute_angle = 1.845703125, self.app_wind_magnitude = 0.0, self.app_wind_angle = 197.77125549316406, self.gps.lat = 29.720855, self.gps.lon = -95.401871667, self.gps.speed = 0.01, self.pitch_angle = 0.0, self.roll_angle = 0.0, self.yaw_angle = 0.0
2024-02-08 21:01:37.089841: self.boat.gps.time='2024-02-08T21:01:35.000Z', self.flap.relative_angle = 124, self.wingsail.absolute_angle = 1.845703125, self.app_wind_magnitude = 0.0, self.app_wind_angle = 197.77125549316406, self.gps.lat = 29.720855, self.gps.lon = -95.401871667, self.gps.speed = 0.01, self.pitch_angle = 0.0, self.roll_angle = 0.0, self.yaw_angle = 0.0
2024-02-08 21:01:37.187807: self.boat.gps.time='2024-02-08T21:01:35.000Z', self.flap.relative_angle = 124, self.wingsail.absolute_angle = 1.669921875, self.app_wind_magnitude = 0.0, self.app_wind_angle = 184.750732421875, self.gps.lat = 29.720855, self.gps.lon = -95.401871667, self.gps.speed = 0.01, self.pitch_angle = 0.0, self.roll_angle = 0.0, self.yaw_angle = 0.0
2024-02-08 21:01:37.285919: self.boat.gps.time='2024-02-08T21:01:35.000Z', self.flap.relative_angle = 124, self.wingsail.absolute_angle = 2.63671875, self.app_wind_magnitude = 0.0, self.app_wind_angle = 185.10263061523438, self.gps.lat = 29.720855, self.gps.lon = -95.401871667, self.gps.speed = 0.01, self.pitch_angle = 0.0, self.roll_angle = 0.0, self.yaw_angle = 0.0
2024-02-08 21:01:37.382797: self.boat.gps.time='2024-02-08T21:01:35.000Z', self.flap.relative_angle = 124, self.wingsail.absolute_angle = 2.900390625, self.app_wind_magnitude = 0.0, self.app_wind_angle = 185.10263061523438, self.gps.lat = 29.720855, self.gps.lon = -95.401871667, self.gps.speed = 0.01, self.pitch_angle = 0.0, self.roll_angle = 0.0, self.yaw_angle = 0.0
2024-02-08 21:01:37.481775: self.boat.gps.time='2024-02-08T21:01:35.000Z', self.flap.relative_angle = 124, self.wingsail.absolute_angle = 3.515625, self.app_wind_magnitude = 0.0, self.app_wind_angle = 185.4545440673828, self.gps.lat = 29.720855, self.gps.lon = -95.401871667, self.gps.speed = 0.01, self.pitch_angle = 0.0, self.roll_angle = 0.0, self.yaw_angle = 0.0
2024-02-08 21:01:37.579885: self.boat.gps.time='2024-02-08T21:01:35.000Z', self.flap.relative_angle = 124, self.wingsail.absolute_angle = 3.69140625, self.app_wind_magnitude = 0.0, self.app_wind_angle = 185.10263061523438, self.gps.lat = 29.720855, self.gps.lon = -95.401871667, self.gps.speed = 0.01, self.pitch_angle = 0.0, self.roll_angle = 0.0, self.yaw_angle = 0.0
2024-02-08 21:01:37.678032: self.boat.gps.time='2024-02-08T21:01:36.000Z', self.flap.relative_angle = 124, self.wingsail.absolute_angle = 5.185546875, self.app_wind_magnitude = 0.0, self.app_wind_angle = 185.4545440673828, self.gps.lat = 29.720855, self.gps.lon = -95.401871667, self.gps.speed = 0.015, self.pitch_angle = 0.0, self.roll_angle = 0.0, self.yaw_angle = 0.0
2024-02-08 21:01:37.771631: self.boat.gps.time='2024-02-08T21:01:36.000Z', self.flap.relative_angle = 124, self.wingsail.absolute_angle = 6.064453125, self.app_wind_magnitude = 0.0, self.app_wind_angle = 185.10263061523438, self.gps.lat = 29.720855, self.gps.lon = -95.401871667, self.gps.speed = 0.015, self.pitch_angle = 0.0, self.roll_angle = 0.0, self.yaw_angle = 0.0
2024-02-08 21:01:37.869022: self.boat.gps.time='2024-02-08T21:01:36.000Z', self.flap.relative_angle = 124, self.wingsail.absolute_angle = 8.349609375, self.app_wind_magnitude = 0.0, self.app_wind_angle = 182.28738403320312, self.gps.lat = 29.720855, self.gps.lon = -95.401871667, self.gps.speed = 0.015, self.pitch_angle = 0.0, self.roll_angle = 0.0, self.yaw_angle = 0.0
2024-02-08 21:01:37.964139: self.boat.gps.time='2024-02-08T21:01:36.000Z', self.flap.relative_angle = 124, self.wingsail.absolute_angle = 9.84375, self.app_wind_magnitude = 0.0, self.app_wind_angle = 181.23167419433594, self.gps.lat = 29.720855, self.gps.lon = -95.401871667, self.gps.speed = 0.015, self.pitch_angle = 0.0, self.roll_angle = 0.0, self.yaw_angle = 0.0
2024-02-08 21:01:38.062535: self.boat.gps.time='2024-02-08T21:01:36.000Z', self.flap.relative_angle = 124, self.wingsail.absolute_angle = 11.865234375, self.app_wind_magnitude = -0.1319648027420044, self.app_wind_angle = 181.23167419433594, self.gps.lat = 29.720855, self.gps.lon = -95.401871667, self.gps.speed = 0.015, self.pitch_angle = 0.0, self.roll_angle = 0.0, self.yaw_angle = 0.0
2024-02-08 21:01:38.160963: self.boat.gps.time='2024-02-08T21:01:36.000Z', self.flap.relative_angle = 124, self.wingsail.absolute_angle = 14.23828125, self.app_wind_magnitude = 0.0, self.app_wind_angle = 182.63929748535156, self.gps.lat = 29.720855, self.gps.lon = -95.401871667, self.gps.speed = 0.015, self.pitch_angle = 0.0, self.roll_angle = 0.0, self.yaw_angle = 0.0
2024-02-08 21:01:38.255502: self.boat.gps.time='2024-02-08T21:01:36.000Z', self.flap.relative_angle = 124, self.wingsail.absolute_angle = 16.083984375, self.app_wind_magnitude = 0.0, self.app_wind_angle = 182.28738403320312, self.gps.lat = 29.720855, self.gps.lon = -95.401871667, self.gps.speed = 0.015, self.pitch_angle = 0.0, self.roll_angle = 0.0, self.yaw_angle = 0.0
