2024-02-08 20:47:27.674643: self.boat.gps.time=0, self.flap.relative_angle = 0, self.wingsail.absolute_angle = 0, self.app_wind_magnitude = 0, self.app_wind_angle = 0, self.gps.lat = 0, self.gps.lon = 0, self.gps.speed = 0, self.pitch_angle = 0, self.roll_angle = 0, self.yaw_angle = 0
2024-02-08 20:47:29.414489: self.boat.gps.time='2024-02-08T20:47:29.000Z', self.flap.relative_angle = 124, self.wingsail.absolute_angle = 0.263671875, self.app_wind_magnitude = 0.0, self.app_wind_angle = 207.97653198242188, self.gps.lat = 29.720416667, self.gps.lon = -95.403095, self.gps.speed = 0.005, self.pitch_angle = 0.0, self.roll_angle = 0.0, self.yaw_angle = 0.0
2024-02-08 20:47:29.512768: self.boat.gps.time='2024-02-08T20:47:29.000Z', self.flap.relative_angle = 124, self.wingsail.absolute_angle = 0.263671875, self.app_wind_magnitude = 0.0, self.app_wind_angle = 208.32846069335938, self.gps.lat = 29.720416667, self.gps.lon = -95.403095, self.gps.speed = 0.005, self.pitch_angle = 0.0, self.roll_angle = 0.0, self.yaw_angle = 0.0
2024-02-08 20:47:29.611187: self.boat.gps.time='2024-02-08T20:47:29.000Z', self.flap.relative_angle = 124, self.wingsail.absolute_angle = 359.47265625, self.app_wind_magnitude = 0.0, self.app_wind_angle = 207.97653198242188, self.gps.lat = 29.720416667, self.gps.lon = -95.403095, self.gps.speed = 0.005, self.pitch_angle = 0.0, self.roll_angle = 0.0, self.yaw_angle = 0.0
2024-02-08 20:47:29.709560: self.boat.gps.time='2024-02-08T20:47:29.000Z', self.flap.relative_angle = 124, self.wingsail.absolute_angle = 359.736328125, self.app_wind_magnitude = 0.0, self.app_wind_angle = 207.97653198242188, self.gps.lat = 29.720416667, self.gps.lon = -95.403095, self.gps.speed = 0.005, self.pitch_angle = 0.0, self.roll_angle = 0.0, self.yaw_angle = 0.0
2024-02-08 20:47:29.808000: self.boat.gps.time='2024-02-08T20:47:29.000Z', self.flap.relative_angle = 124, self.wingsail.absolute_angle = 359.82421875, self.app_wind_magnitude = 0.0, self.app_wind_angle = 208.68035888671875, self.gps.lat = 29.720416667, self.gps.lon = -95.403095, self.gps.speed = 0.005, self.pitch_angle = 0.0, self.roll_angle = 0.0, self.yaw_angle = 0.0
2024-02-08 20:47:29.906164: self.boat.gps.time='2024-02-08T20:47:29.000Z', self.flap.relative_angle = 124, self.wingsail.absolute_angle = 0.3515625, self.app_wind_magnitude = 0.0, self.app_wind_angle = 208.32846069335938, self.gps.lat = 29.720416667, self.gps.lon = -95.403095, self.gps.speed = 0.005, self.pitch_angle = 0.0, self.roll_angle = 0.0, self.yaw_angle = 0.0
2024-02-08 20:47:30.004676: self.boat.gps.time='2024-02-08T20:47:29.000Z', self.flap.relative_angle = 124, self.wingsail.absolute_angle = 359.912109375, self.app_wind_magnitude = 0.0, self.app_wind_angle = 207.97653198242188, self.gps.lat = 29.720416667, self.gps.lon = -95.403095, self.gps.speed = 0.005, self.pitch_angle = 0.0, self.roll_angle = 0.0, self.yaw_angle = 0.0
2024-02-08 20:47:30.102953: self.boat.gps.time='2024-02-08T20:47:29.000Z', self.flap.relative_angle = 124, self.wingsail.absolute_angle = 359.82421875, self.app_wind_magnitude = 0.0, self.app_wind_angle = 207.97653198242188, self.gps.lat = 29.720416667, self.gps.lon = -95.403095, self.gps.speed = 0.005, self.pitch_angle = 0.0, self.roll_angle = 0.0, self.yaw_angle = 0.0
2024-02-08 20:47:30.201261: self.boat.gps.time='2024-02-08T20:47:29.000Z', self.flap.relative_angle = 124, self.wingsail.absolute_angle = 359.560546875, self.app_wind_magnitude = 0.0, self.app_wind_angle = 207.97653198242188, self.gps.lat = 29.720416667, self.gps.lon = -95.403095, self.gps.speed = 0.005, self.pitch_angle = 0.0, self.roll_angle = 0.0, self.yaw_angle = 0.0
2024-02-08 20:47:30.299495: self.boat.gps.time='2024-02-08T20:47:29.000Z', self.flap.relative_angle = 124, self.wingsail.absolute_angle = 359.560546875, self.app_wind_magnitude = 0.0, self.app_wind_angle = 207.97653198242188, self.gps.lat = 29.720416667, self.gps.lon = -95.403095, self.gps.speed = 0.005, self.pitch_angle = 0.0, self.roll_angle = 0.0, self.yaw_angle = 0.0
2024-02-08 20:47:30.397859: self.boat.gps.time='2024-02-08T20:47:29.000Z', self.flap.relative_angle = 124, self.wingsail.absolute_angle = 359.033203125, self.app_wind_magnitude = 0.0, self.app_wind_angle = 208.32846069335938, self.gps.lat = 29.720416667, self.gps.lon = -95.403095, self.gps.speed = 0.005, self.pitch_angle = 0.0, self.roll_angle = 0.0, self.yaw_angle = 0.0
2024-02-08 20:47:30.496118: self.boat.gps.time='2024-02-08T20:47:30.000Z', self.flap.relative_angle = 124, self.wingsail.absolute_angle = 360.0, self.app_wind_magnitude = 0.0, self.app_wind_angle = 209.03225708007812, self.gps.lat = 29.720416667, self.gps.lon = -95.403095, self.gps.speed = 0.01, self.pitch_angle = 0.0, self.roll_angle = 0.0, self.yaw_angle = 0.0
2024-02-08 20:47:30.594326: self.boat.gps.time='2024-02-08T20:47:30.000Z', self.flap.relative_angle = 124, self.wingsail.absolute_angle = 359.47265625, self.app_wind_magnitude = 0.0, self.app_wind_angle = 207.97653198242188, self.gps.lat = 29.720416667, self.gps.lon = -95.403095, self.gps.speed = 0.01, self.pitch_angle = 0.0, self.roll_angle = 0.0, self.yaw_angle = 0.0
2024-02-08 20:47:30.691650: self.boat.gps.time='2024-02-08T20:47:30.000Z', self.flap.relative_angle = 124, self.wingsail.absolute_angle = 359.47265625, self.app_wind_magnitude = 0.0, self.app_wind_angle = 207.97653198242188, self.gps.lat = 29.720416667, self.gps.lon = -95.403095, self.gps.speed = 0.01, self.pitch_angle = 0.0, self.roll_angle = 0.0, self.yaw_angle = 0.0
2024-02-08 20:47:30.790032: self.boat.gps.time='2024-02-08T20:47:30.000Z', self.flap.relative_angle = 124, self.wingsail.absolute_angle = 359.12109375, self.app_wind_magnitude = 0.0, self.app_wind_angle = 206.56890869140625, self.gps.lat = 29.720416667, self.gps.lon = -95.403095, self.gps.speed = 0.01, self.pitch_angle = 0.0, self.roll_angle = 0.0, self.yaw_angle = 0.0
2024-02-08 20:47:30.888275: self.boat.gps.time='2024-02-08T20:47:30.000Z', self.flap.relative_angle = 124, self.wingsail.absolute_angle = 358.59375, self.app_wind_magnitude = 0.0, self.app_wind_angle = 207.97653198242188, self.gps.lat = 29.720416667, self.gps.lon = -95.403095, self.gps.speed = 0.01, self.pitch_angle = 0.0, self.roll_angle = 0.0, self.yaw_angle = 0.0
2024-02-08 20:47:30.986539: self.boat.gps.time='2024-02-08T20:47:30.000Z', self.flap.relative_angle = 124, self.wingsail.absolute_angle = 358.9453125, self.app_wind_magnitude = 0.0, self.app_wind_angle = 207.62461853027344, self.gps.lat = 29.720416667, self.gps.lon = -95.403095, self.gps.speed = 0.01, self.pitch_angle = 0.0, self.roll_angle = 0.0, self.yaw_angle = 0.0
2024-02-08 20:47:31.084758: self.boat.gps.time='2024-02-08T20:47:30.000Z', self.flap.relative_angle = 124, self.wingsail.absolute_angle = 359.208984375, self.app_wind_magnitude = 0.0, self.app_wind_angle = 207.62461853027344, self.gps.lat = 29.720416667, self.gps.lon = -95.403095, self.gps.speed = 0.01, self.pitch_angle = 0.0, self.roll_angle = 0.0, self.yaw_angle = 0.0
2024-02-08 20:47:31.182996: self.boat.gps.time='2024-02-08T20:47:30.000Z', self.flap.relative_angle = 124, self.wingsail.absolute_angle = 359.296875, self.app_wind_magnitude = 0.0, self.app_wind_angle = 207.97653198242188, self.gps.lat = 29.720416667, self.gps.lon = -95.403095, self.gps.speed = 0.01, self.pitch_angle = 0.0, self.roll_angle = 0.0, self.yaw_angle = 0.0
2024-02-08 20:47:31.281555: self.boat.gps.time='2024-02-08T20:47:30.000Z', self.flap.relative_angle = 124, self.wingsail.absolute_angle = 358.76953125, self.app_wind_magnitude = 0.0, self.app_wind_angle = 208.32846069335938, self.gps.lat = 29.720416667, self.gps.lon = -95.403095, self.gps.speed = 0.01, self.pitch_angle = 0.0, self.roll_angle = 0.0, self.yaw_angle = 0.0
2024-02-08 20:47:31.380311: self.boat.gps.time='2024-02-08T20:47:30.000Z', self.flap.relative_angle = 124, self.wingsail.absolute_angle = 359.033203125, self.app_wind_magnitude = 0.0, self.app_wind_angle = 207.27272033691406, self.gps.lat = 29.720416667, self.gps.lon = -95.403095, self.gps.speed = 0.01, self.pitch_angle = 0.0, self.roll_angle = 0.0, self.yaw_angle = 0.0
2024-02-08 20:47:31.478703: self.boat.gps.time='2024-02-08T20:47:30.000Z', self.flap.relative_angle = 124, self.wingsail.absolute_angle = 358.9453125, self.app_wind_magnitude = 0.0, self.app_wind_angle = 206.92080688476562, self.gps.lat = 29.720416667, self.gps.lon = -95.403095, self.gps.speed = 0.01, self.pitch_angle = 0.0, self.roll_angle = 0.0, self.yaw_angle = 0.0
2024-02-08 20:47:31.575780: self.boat.gps.time='2024-02-08T20:47:31.000Z', self.flap.relative_angle = 124, self.wingsail.absolute_angle = 358.9453125, self.app_wind_magnitude = 0.0, self.app_wind_angle = 206.56890869140625, self.gps.lat = 29.720416667, self.gps.lon = -95.403095, self.gps.speed = 0.01, self.pitch_angle = 0.0, self.roll_angle = 0.0, self.yaw_angle = 0.0
2024-02-08 20:47:31.673797: self.boat.gps.time='2024-02-08T20:47:31.000Z', self.flap.relative_angle = 124, self.wingsail.absolute_angle = 358.330078125, self.app_wind_magnitude = 0.0, self.app_wind_angle = 206.92080688476562, self.gps.lat = 29.720416667, self.gps.lon = -95.403095, self.gps.speed = 0.01, self.pitch_angle = 0.0, self.roll_angle = 0.0, self.yaw_angle = 0.0
2024-02-08 20:47:31.771508: self.boat.gps.time='2024-02-08T20:47:31.000Z', self.flap.relative_angle = 124, self.wingsail.absolute_angle = 357.451171875, self.app_wind_magnitude = 0.0, self.app_wind_angle = 206.92080688476562, self.gps.lat = 29.720416667, self.gps.lon = -95.403095, self.gps.speed = 0.01, self.pitch_angle = 0.0, self.roll_angle = 0.0, self.yaw_angle = 0.0
2024-02-08 20:47:31.869736: self.boat.gps.time='2024-02-08T20:47:31.000Z', self.flap.relative_angle = 124, self.wingsail.absolute_angle = 357.802734375, self.app_wind_magnitude = 0.0, self.app_wind_angle = 206.92080688476562, self.gps.lat = 29.720416667, self.gps.lon = -95.403095, self.gps.speed = 0.01, self.pitch_angle = 0.0, self.roll_angle = 0.0, self.yaw_angle = 0.0
2024-02-08 20:47:31.968061: self.boat.gps.time='2024-02-08T20:47:31.000Z', self.flap.relative_angle = 124, self.wingsail.absolute_angle = 358.06640625, self.app_wind_magnitude = 0.0, self.app_wind_angle = 206.2169952392578, self.gps.lat = 29.720416667, self.gps.lon = -95.403095, self.gps.speed = 0.01, self.pitch_angle = 0.0, self.roll_angle = 0.0, self.yaw_angle = 0.0
2024-02-08 20:47:32.066319: self.boat.gps.time='2024-02-08T20:47:31.000Z', self.flap.relative_angle = 124, self.wingsail.absolute_angle = 357.890625, self.app_wind_magnitude = 0.0, self.app_wind_angle = 206.92080688476562, self.gps.lat = 29.720416667, self.gps.lon = -95.403095, self.gps.speed = 0.01, self.pitch_angle = 0.0, self.roll_angle = 0.0, self.yaw_angle = 0.0
2024-02-08 20:47:32.164330: self.boat.gps.time='2024-02-08T20:47:31.000Z', self.flap.relative_angle = 124, self.wingsail.absolute_angle = 358.41796875, self.app_wind_magnitude = 0.0, self.app_wind_angle = 206.56890869140625, self.gps.lat = 29.720416667, self.gps.lon = -95.403095, self.gps.speed = 0.01, self.pitch_angle = 0.0, self.roll_angle = 0.0, self.yaw_angle = 0.0
2024-02-08 20:47:32.258947: self.boat.gps.time='2024-02-08T20:47:31.000Z', self.flap.relative_angle = 124, self.wingsail.absolute_angle = 358.2421875, self.app_wind_magnitude = 0.0, self.app_wind_angle = 205.16128540039062, self.gps.lat = 29.720416667, self.gps.lon = -95.403095, self.gps.speed = 0.01, self.pitch_angle = 0.0, self.roll_angle = 0.0, self.yaw_angle = 0.0
2024-02-08 20:47:32.355530: self.boat.gps.time='2024-02-08T20:47:31.000Z', self.flap.relative_angle = 124, self.wingsail.absolute_angle = 357.1875, self.app_wind_magnitude = 0.08797653764486313, self.app_wind_angle = 204.4574737548828, self.gps.lat = 29.720416667, self.gps.lon = -95.403095, self.gps.speed = 0.01, self.pitch_angle = 0.0, self.roll_angle = 0.0, self.yaw_angle = 0.0
2024-02-08 20:47:32.453912: self.boat.gps.time='2024-02-08T20:47:31.000Z', self.flap.relative_angle = 124, self.wingsail.absolute_angle = 357.451171875, self.app_wind_magnitude = 0.0, self.app_wind_angle = 204.8093719482422, self.gps.lat = 29.720416667, self.gps.lon = -95.403095, self.gps.speed = 0.01, self.pitch_angle = 0.0, self.roll_angle = 0.0, self.yaw_angle = 0.0
2024-02-08 20:47:32.552130: self.boat.gps.time='2024-02-08T20:47:31.000Z', self.flap.relative_angle = 124, self.wingsail.absolute_angle = 357.890625, self.app_wind_magnitude = 0.0, self.app_wind_angle = 204.8093719482422, self.gps.lat = 29.720416667, self.gps.lon = -95.403095, self.gps.speed = 0.01, self.pitch_angle = 0.0, self.roll_angle = 0.0, self.yaw_angle = 0.0
2024-02-08 20:47:32.646993: self.boat.gps.time='2024-02-08T20:47:32.000Z', self.flap.relative_angle = 124, self.wingsail.absolute_angle = 357.099609375, self.app_wind_magnitude = 0.0, self.app_wind_angle = 204.8093719482422, self.gps.lat = 29.720416667, self.gps.lon = -95.403095, self.gps.speed = 0.067, self.pitch_angle = 0.0, self.roll_angle = 0.0, self.yaw_angle = 0.0
2024-02-08 20:47:32.742869: self.boat.gps.time='2024-02-08T20:47:32.000Z', self.flap.relative_angle = 124, self.wingsail.absolute_angle = 357.5390625, self.app_wind_magnitude = 0.0, self.app_wind_angle = 204.8093719482422, self.gps.lat = 29.720416667, self.gps.lon = -95.403095, self.gps.speed = 0.067, self.pitch_angle = 0.0, self.roll_angle = 0.0, self.yaw_angle = 0.0
2024-02-08 20:47:32.838033: self.boat.gps.time='2024-02-08T20:47:32.000Z', self.flap.relative_angle = 124, self.wingsail.absolute_angle = 357.01171875, self.app_wind_magnitude = 0.0, self.app_wind_angle = 204.4574737548828, self.gps.lat = 29.720416667, self.gps.lon = -95.403095, self.gps.speed = 0.067, self.pitch_angle = 0.0, self.roll_angle = 0.0, self.yaw_angle = 0.0
2024-02-08 20:47:32.936461: self.boat.gps.time='2024-02-08T20:47:32.000Z', self.flap.relative_angle = 124, self.wingsail.absolute_angle = 356.923828125, self.app_wind_magnitude = 0.0, self.app_wind_angle = 205.16128540039062, self.gps.lat = 29.720416667, self.gps.lon = -95.403095, self.gps.speed = 0.067, self.pitch_angle = 0.0, self.roll_angle = 0.0, self.yaw_angle = 0.0
2024-02-08 20:47:33.034737: self.boat.gps.time='2024-02-08T20:47:32.000Z', self.flap.relative_angle = 124, self.wingsail.absolute_angle = 356.30859375, self.app_wind_magnitude = 0.0, self.app_wind_angle = 204.8093719482422, self.gps.lat = 29.720416667, self.gps.lon = -95.403095, self.gps.speed = 0.067, self.pitch_angle = 0.0, self.roll_angle = 0.0, self.yaw_angle = 0.0
2024-02-08 20:47:33.134076: self.boat.gps.time='2024-02-08T20:47:32.000Z', self.flap.relative_angle = 124, self.wingsail.absolute_angle = 356.66015625, self.app_wind_magnitude = 0.0, self.app_wind_angle = 204.8093719482422, self.gps.lat = 29.720416667, self.gps.lon = -95.403095, self.gps.speed = 0.067, self.pitch_angle = 0.0, self.roll_angle = 0.0, self.yaw_angle = 0.0
2024-02-08 20:47:33.232299: self.boat.gps.time='2024-02-08T20:47:32.000Z', self.flap.relative_angle = 124, self.wingsail.absolute_angle = 356.30859375, self.app_wind_magnitude = 0.0, self.app_wind_angle = 205.16128540039062, self.gps.lat = 29.720416667, self.gps.lon = -95.403095, self.gps.speed = 0.067, self.pitch_angle = 0.0, self.roll_angle = 0.0, self.yaw_angle = 0.0
2024-02-08 20:47:33.330699: self.boat.gps.time='2024-02-08T20:47:32.000Z', self.flap.relative_angle = 124, self.wingsail.absolute_angle = 356.8359375, self.app_wind_magnitude = 0.0, self.app_wind_angle = 205.16128540039062, self.gps.lat = 29.720416667, self.gps.lon = -95.403095, self.gps.speed = 0.067, self.pitch_angle = 0.0, self.roll_angle = 0.0, self.yaw_angle = 0.0
2024-02-08 20:47:33.429130: self.boat.gps.time='2024-02-08T20:47:32.000Z', self.flap.relative_angle = 124, self.wingsail.absolute_angle = 357.099609375, self.app_wind_magnitude = 0.0, self.app_wind_angle = 204.8093719482422, self.gps.lat = 29.720416667, self.gps.lon = -95.403095, self.gps.speed = 0.067, self.pitch_angle = 0.0, self.roll_angle = 0.0, self.yaw_angle = 0.0
2024-02-08 20:47:33.527559: self.boat.gps.time='2024-02-08T20:47:32.000Z', self.flap.relative_angle = 124, self.wingsail.absolute_angle = 357.978515625, self.app_wind_magnitude = 0.0, self.app_wind_angle = 205.16128540039062, self.gps.lat = 29.720416667, self.gps.lon = -95.403095, self.gps.speed = 0.067, self.pitch_angle = 0.0, self.roll_angle = 0.0, self.yaw_angle = 0.0
2024-02-08 20:47:33.623558: self.boat.gps.time='2024-02-08T20:47:32.000Z', self.flap.relative_angle = 124, self.wingsail.absolute_angle = 358.154296875, self.app_wind_magnitude = 0.0, self.app_wind_angle = 204.8093719482422, self.gps.lat = 29.720416667, self.gps.lon = -95.403095, self.gps.speed = 0.067, self.pitch_angle = 0.0, self.roll_angle = 0.0, self.yaw_angle = 0.0
2024-02-08 20:47:33.722847: self.boat.gps.time='2024-02-08T20:47:33.000Z', self.flap.relative_angle = 124, self.wingsail.absolute_angle = 358.681640625, self.app_wind_magnitude = 0.0, self.app_wind_angle = 202.69793701171875, self.gps.lat = 29.720416667, self.gps.lon = -95.403095, self.gps.speed = 0.401, self.pitch_angle = 0.0, self.roll_angle = 0.0, self.yaw_angle = 0.0
2024-02-08 20:47:33.821110: self.boat.gps.time='2024-02-08T20:47:33.000Z', self.flap.relative_angle = 124, self.wingsail.absolute_angle = 359.12109375, self.app_wind_magnitude = 0.0, self.app_wind_angle = 203.40174865722656, self.gps.lat = 29.720416667, self.gps.lon = -95.403095, self.gps.speed = 0.401, self.pitch_angle = 0.0, self.roll_angle = 0.0, self.yaw_angle = 0.0
2024-02-08 20:47:33.918966: self.boat.gps.time='2024-02-08T20:47:33.000Z', self.flap.relative_angle = 124, self.wingsail.absolute_angle = 359.384765625, self.app_wind_magnitude = 0.0, self.app_wind_angle = 203.0498504638672, self.gps.lat = 29.720416667, self.gps.lon = -95.403095, self.gps.speed = 0.401, self.pitch_angle = 0.0, self.roll_angle = 0.0, self.yaw_angle = 0.0
2024-02-08 20:47:34.017192: self.boat.gps.time='2024-02-08T20:47:33.000Z', self.flap.relative_angle = 124, self.wingsail.absolute_angle = 359.208984375, self.app_wind_magnitude = 0.0, self.app_wind_angle = 203.0498504638672, self.gps.lat = 29.720416667, self.gps.lon = -95.403095, self.gps.speed = 0.401, self.pitch_angle = 0.0, self.roll_angle = 0.0, self.yaw_angle = 0.0
2024-02-08 20:47:34.115208: self.boat.gps.time='2024-02-08T20:47:33.000Z', self.flap.relative_angle = 124, self.wingsail.absolute_angle = 0.52734375, self.app_wind_magnitude = 0.0, self.app_wind_angle = 201.64222717285156, self.gps.lat = 29.720416667, self.gps.lon = -95.403095, self.gps.speed = 0.401, self.pitch_angle = 0.0, self.roll_angle = 0.0, self.yaw_angle = 0.0
2024-02-08 20:47:34.213251: self.boat.gps.time='2024-02-08T20:47:33.000Z', self.flap.relative_angle = 124, self.wingsail.absolute_angle = 1.142578125, self.app_wind_magnitude = 0.0, self.app_wind_angle = 203.0498504638672, self.gps.lat = 29.720416667, self.gps.lon = -95.403095, self.gps.speed = 0.401, self.pitch_angle = 0.0, self.roll_angle = 0.0, self.yaw_angle = 0.0
2024-02-08 20:47:34.311263: self.boat.gps.time='2024-02-08T20:47:33.000Z', self.flap.relative_angle = 124, self.wingsail.absolute_angle = 1.7578125, self.app_wind_magnitude = 0.0, self.app_wind_angle = 203.0498504638672, self.gps.lat = 29.720416667, self.gps.lon = -95.403095, self.gps.speed = 0.401, self.pitch_angle = 0.0, self.roll_angle = 0.0, self.yaw_angle = 0.0
2024-02-08 20:47:34.408276: self.boat.gps.time='2024-02-08T20:47:33.000Z', self.flap.relative_angle = 124, self.wingsail.absolute_angle = 2.28515625, self.app_wind_magnitude = 0.0, self.app_wind_angle = 204.10556030273438, self.gps.lat = 29.720416667, self.gps.lon = -95.403095, self.gps.speed = 0.401, self.pitch_angle = 0.0, self.roll_angle = 0.0, self.yaw_angle = 0.0
2024-02-08 20:47:34.506290: self.boat.gps.time='2024-02-08T20:47:33.000Z', self.flap.relative_angle = 124, self.wingsail.absolute_angle = 3.1640625, self.app_wind_magnitude = 0.0, self.app_wind_angle = 204.10556030273438, self.gps.lat = 29.720416667, self.gps.lon = -95.403095, self.gps.speed = 0.401, self.pitch_angle = 0.0, self.roll_angle = 0.0, self.yaw_angle = 0.0
2024-02-08 20:47:34.604319: self.boat.gps.time='2024-02-08T20:47:33.000Z', self.flap.relative_angle = 124, self.wingsail.absolute_angle = 3.515625, self.app_wind_magnitude = 0.0, self.app_wind_angle = 203.753662109375, self.gps.lat = 29.720416667, self.gps.lon = -95.403095, self.gps.speed = 0.401, self.pitch_angle = 0.0, self.roll_angle = 0.0, self.yaw_angle = 0.0
2024-02-08 20:47:34.702429: self.boat.gps.time='2024-02-08T20:47:33.000Z', self.flap.relative_angle = 124, self.wingsail.absolute_angle = 2.724609375, self.app_wind_magnitude = 0.0, self.app_wind_angle = 204.10556030273438, self.gps.lat = 29.720416667, self.gps.lon = -95.403095, self.gps.speed = 0.401, self.pitch_angle = 0.0, self.roll_angle = 0.0, self.yaw_angle = 0.0
2024-02-08 20:47:34.801206: self.boat.gps.time='2024-02-08T20:47:34.000Z', self.flap.relative_angle = 124, self.wingsail.absolute_angle = 2.63671875, self.app_wind_magnitude = 0.0, self.app_wind_angle = 204.4574737548828, self.gps.lat = 29.720418333, self.gps.lon = -95.403086667, self.gps.speed = 0.983, self.pitch_angle = 0.0, self.roll_angle = 0.0, self.yaw_angle = 0.0
2024-02-08 20:47:34.900693: self.boat.gps.time='2024-02-08T20:47:34.000Z', self.flap.relative_angle = 124, self.wingsail.absolute_angle = 3.1640625, self.app_wind_magnitude = 0.0, self.app_wind_angle = 203.40174865722656, self.gps.lat = 29.720418333, self.gps.lon = -95.403086667, self.gps.speed = 0.983, self.pitch_angle = 0.0, self.roll_angle = 0.0, self.yaw_angle = 0.0
2024-02-08 20:47:34.998144: self.boat.gps.time='2024-02-08T20:47:34.000Z', self.flap.relative_angle = 124, self.wingsail.absolute_angle = 3.33984375, self.app_wind_magnitude = 0.0, self.app_wind_angle = 203.40174865722656, self.gps.lat = 29.720418333, self.gps.lon = -95.403086667, self.gps.speed = 0.983, self.pitch_angle = 0.0, self.roll_angle = 0.0, self.yaw_angle = 0.0
2024-02-08 20:47:35.096187: self.boat.gps.time='2024-02-08T20:47:34.000Z', self.flap.relative_angle = 124, self.wingsail.absolute_angle = 2.98828125, self.app_wind_magnitude = 0.0, self.app_wind_angle = 203.753662109375, self.gps.lat = 29.720418333, self.gps.lon = -95.403086667, self.gps.speed = 0.983, self.pitch_angle = 0.0, self.roll_angle = 0.0, self.yaw_angle = 0.0
2024-02-08 20:47:35.194313: self.boat.gps.time='2024-02-08T20:47:34.000Z', self.flap.relative_angle = 124, self.wingsail.absolute_angle = 3.69140625, self.app_wind_magnitude = 0.0, self.app_wind_angle = 204.4574737548828, self.gps.lat = 29.720418333, self.gps.lon = -95.403086667, self.gps.speed = 0.983, self.pitch_angle = 0.0, self.roll_angle = 0.0, self.yaw_angle = 0.0
2024-02-08 20:47:35.292192: self.boat.gps.time='2024-02-08T20:47:34.000Z', self.flap.relative_angle = 124, self.wingsail.absolute_angle = 3.076171875, self.app_wind_magnitude = 0.0, self.app_wind_angle = 204.4574737548828, self.gps.lat = 29.720418333, self.gps.lon = -95.403086667, self.gps.speed = 0.983, self.pitch_angle = 0.0, self.roll_angle = 0.0, self.yaw_angle = 0.0
2024-02-08 20:47:35.390189: self.boat.gps.time='2024-02-08T20:47:34.000Z', self.flap.relative_angle = 124, self.wingsail.absolute_angle = 3.427734375, self.app_wind_magnitude = 0.0, self.app_wind_angle = 204.4574737548828, self.gps.lat = 29.720418333, self.gps.lon = -95.403086667, self.gps.speed = 0.983, self.pitch_angle = 0.0, self.roll_angle = 0.0, self.yaw_angle = 0.0
2024-02-08 20:47:35.488332: self.boat.gps.time='2024-02-08T20:47:34.000Z', self.flap.relative_angle = 124, self.wingsail.absolute_angle = 3.33984375, self.app_wind_magnitude = 0.0, self.app_wind_angle = 204.10556030273438, self.gps.lat = 29.720418333, self.gps.lon = -95.403086667, self.gps.speed = 0.983, self.pitch_angle = 0.0, self.roll_angle = 0.0, self.yaw_angle = 0.0
2024-02-08 20:47:35.586489: self.boat.gps.time='2024-02-08T20:47:34.000Z', self.flap.relative_angle = 124, self.wingsail.absolute_angle = 4.39453125, self.app_wind_magnitude = 0.0, self.app_wind_angle = 204.4574737548828, self.gps.lat = 29.720418333, self.gps.lon = -95.403086667, self.gps.speed = 0.983, self.pitch_angle = 0.0, self.roll_angle = 0.0, self.yaw_angle = 0.0
2024-02-08 20:47:35.686698: self.boat.gps.time='2024-02-08T20:47:34.000Z', self.flap.relative_angle = 124, self.wingsail.absolute_angle = 3.955078125, self.app_wind_magnitude = 0.0, self.app_wind_angle = 204.4574737548828, self.gps.lat = 29.720418333, self.gps.lon = -95.403086667, self.gps.speed = 0.983, self.pitch_angle = 0.0, self.roll_angle = 0.0, self.yaw_angle = 0.0
2024-02-08 20:47:35.783149: self.boat.gps.time='2024-02-08T20:47:34.000Z', self.flap.relative_angle = 124, self.wingsail.absolute_angle = 3.603515625, self.app_wind_magnitude = 0.0, self.app_wind_angle = 204.10556030273438, self.gps.lat = 29.720418333, self.gps.lon = -95.403086667, self.gps.speed = 0.983, self.pitch_angle = 0.0, self.roll_angle = 0.0, self.yaw_angle = 0.0
2024-02-08 20:47:35.880856: self.boat.gps.time='2024-02-08T20:47:35.000Z', self.flap.relative_angle = 124, self.wingsail.absolute_angle = 3.603515625, self.app_wind_magnitude = 0.0, self.app_wind_angle = 209.03225708007812, self.gps.lat = 29.72042, self.gps.lon = -95.403075, self.gps.speed = 1.08, self.pitch_angle = 0.0, self.roll_angle = 0.0, self.yaw_angle = 0.0
2024-02-08 20:47:35.978961: self.boat.gps.time='2024-02-08T20:47:35.000Z', self.flap.relative_angle = 124, self.wingsail.absolute_angle = 3.1640625, self.app_wind_magnitude = 0.0, self.app_wind_angle = 209.03225708007812, self.gps.lat = 29.72042, self.gps.lon = -95.403075, self.gps.speed = 1.08, self.pitch_angle = 0.0, self.roll_angle = 0.0, self.yaw_angle = 0.0
2024-02-08 20:47:36.077089: self.boat.gps.time='2024-02-08T20:47:35.000Z', self.flap.relative_angle = 124, self.wingsail.absolute_angle = 3.427734375, self.app_wind_magnitude = 0.0, self.app_wind_angle = 209.736083984375, self.gps.lat = 29.72042, self.gps.lon = -95.403075, self.gps.speed = 1.08, self.pitch_angle = 0.0, self.roll_angle = 0.0, self.yaw_angle = 0.0
2024-02-08 20:47:36.175059: self.boat.gps.time='2024-02-08T20:47:35.000Z', self.flap.relative_angle = 124, self.wingsail.absolute_angle = 3.8671875, self.app_wind_magnitude = 0.0, self.app_wind_angle = 209.736083984375, self.gps.lat = 29.72042, self.gps.lon = -95.403075, self.gps.speed = 1.08, self.pitch_angle = 0.0, self.roll_angle = 0.0, self.yaw_angle = 0.0
2024-02-08 20:47:36.271259: self.boat.gps.time='2024-02-08T20:47:35.000Z', self.flap.relative_angle = 124, self.wingsail.absolute_angle = 3.427734375, self.app_wind_magnitude = 0.0, self.app_wind_angle = 209.03225708007812, self.gps.lat = 29.72042, self.gps.lon = -95.403075, self.gps.speed = 1.08, self.pitch_angle = 0.0, self.roll_angle = 0.0, self.yaw_angle = 0.0
2024-02-08 20:47:36.369347: self.boat.gps.time='2024-02-08T20:47:35.000Z', self.flap.relative_angle = 124, self.wingsail.absolute_angle = 3.603515625, self.app_wind_magnitude = 0.0, self.app_wind_angle = 209.03225708007812, self.gps.lat = 29.72042, self.gps.lon = -95.403075, self.gps.speed = 1.08, self.pitch_angle = 0.0, self.roll_angle = 0.0, self.yaw_angle = 0.0
2024-02-08 20:47:36.467418: self.boat.gps.time='2024-02-08T20:47:35.000Z', self.flap.relative_angle = 124, self.wingsail.absolute_angle = 3.076171875, self.app_wind_magnitude = 0.0, self.app_wind_angle = 209.38417053222656, self.gps.lat = 29.72042, self.gps.lon = -95.403075, self.gps.speed = 1.08, self.pitch_angle = 0.0, self.roll_angle = 0.0, self.yaw_angle = 0.0
2024-02-08 20:47:36.565525: self.boat.gps.time='2024-02-08T20:47:35.000Z', self.flap.relative_angle = 124, self.wingsail.absolute_angle = 2.900390625, self.app_wind_magnitude = 0.0, self.app_wind_angle = 209.03225708007812, self.gps.lat = 29.72042, self.gps.lon = -95.403075, self.gps.speed = 1.08, self.pitch_angle = 0.0, self.roll_angle = 0.0, self.yaw_angle = 0.0
2024-02-08 20:47:36.663631: self.boat.gps.time='2024-02-08T20:47:35.000Z', self.flap.relative_angle = 124, self.wingsail.absolute_angle = 2.98828125, self.app_wind_magnitude = 0.0, self.app_wind_angle = 221.34898376464844, self.gps.lat = 29.72042, self.gps.lon = -95.403075, self.gps.speed = 1.08, self.pitch_angle = 0.0, self.roll_angle = 0.0, self.yaw_angle = 0.0
2024-02-08 20:47:36.759974: self.boat.gps.time='2024-02-08T20:47:35.000Z', self.flap.relative_angle = 124, self.wingsail.absolute_angle = 2.63671875, self.app_wind_magnitude = 0.043988268822431564, self.app_wind_angle = 221.7008819580078, self.gps.lat = 29.72042, self.gps.lon = -95.403075, self.gps.speed = 1.08, self.pitch_angle = 0.0, self.roll_angle = 0.0, self.yaw_angle = 0.0
2024-02-08 20:47:36.859430: self.boat.gps.time='2024-02-08T20:47:35.000Z', self.flap.relative_angle = 124, self.wingsail.absolute_angle = 3.076171875, self.app_wind_magnitude = 0.0, self.app_wind_angle = 221.34898376464844, self.gps.lat = 29.72042, self.gps.lon = -95.403075, self.gps.speed = 1.08, self.pitch_angle = 0.0, self.roll_angle = 0.0, self.yaw_angle = 0.0
2024-02-08 20:47:36.958137: self.boat.gps.time='2024-02-08T20:47:36.000Z', self.flap.relative_angle = 124, self.wingsail.absolute_angle = 2.98828125, self.app_wind_magnitude = 0.0, self.app_wind_angle = 221.34898376464844, self.gps.lat = 29.720425, self.gps.lon = -95.403063333, self.gps.speed = 1.219, self.pitch_angle = 0.0, self.roll_angle = 0.0, self.yaw_angle = 0.0
2024-02-08 20:47:37.056201: self.boat.gps.time='2024-02-08T20:47:36.000Z', self.flap.relative_angle = 124, self.wingsail.absolute_angle = 3.1640625, self.app_wind_magnitude = 0.043988268822431564, self.app_wind_angle = 220.9970703125, self.gps.lat = 29.720425, self.gps.lon = -95.403063333, self.gps.speed = 1.219, self.pitch_angle = 0.0, self.roll_angle = 0.0, self.yaw_angle = 0.0
2024-02-08 20:47:37.154165: self.boat.gps.time='2024-02-08T20:47:36.000Z', self.flap.relative_angle = 124, self.wingsail.absolute_angle = 3.251953125, self.app_wind_magnitude = 0.1319648027420044, self.app_wind_angle = 220.64517211914062, self.gps.lat = 29.720425, self.gps.lon = -95.403063333, self.gps.speed = 1.219, self.pitch_angle = 0.0, self.roll_angle = 0.0, self.yaw_angle = 0.0
2024-02-08 20:47:37.250111: self.boat.gps.time='2024-02-08T20:47:36.000Z', self.flap.relative_angle = 124, self.wingsail.absolute_angle = 2.900390625, self.app_wind_magnitude = 0.0, self.app_wind_angle = 221.7008819580078, self.gps.lat = 29.720425, self.gps.lon = -95.403063333, self.gps.speed = 1.219, self.pitch_angle = 0.0, self.roll_angle = 0.0, self.yaw_angle = 0.0
2024-02-08 20:47:37.345343: self.boat.gps.time='2024-02-08T20:47:36.000Z', self.flap.relative_angle = 124, self.wingsail.absolute_angle = 3.076171875, self.app_wind_magnitude = 0.0, self.app_wind_angle = 249.14956665039062, self.gps.lat = 29.720425, self.gps.lon = -95.403063333, self.gps.speed = 1.219, self.pitch_angle = 0.0, self.roll_angle = 0.0, self.yaw_angle = 0.0
2024-02-08 20:47:37.443642: self.boat.gps.time='2024-02-08T20:47:36.000Z', self.flap.relative_angle = 124, self.wingsail.absolute_angle = 3.251953125, self.app_wind_magnitude = 0.0, self.app_wind_angle = 249.14956665039062, self.gps.lat = 29.720425, self.gps.lon = -95.403063333, self.gps.speed = 1.219, self.pitch_angle = 0.0, self.roll_angle = 0.0, self.yaw_angle = 0.0
2024-02-08 20:47:37.541596: self.boat.gps.time='2024-02-08T20:47:36.000Z', self.flap.relative_angle = 124, self.wingsail.absolute_angle = 3.427734375, self.app_wind_magnitude = 0.043988268822431564, self.app_wind_angle = 248.4457550048828, self.gps.lat = 29.720425, self.gps.lon = -95.403063333, self.gps.speed = 1.219, self.pitch_angle = 0.0, self.roll_angle = 0.0, self.yaw_angle = 0.0
2024-02-08 20:47:37.638899: self.boat.gps.time='2024-02-08T20:47:36.000Z', self.flap.relative_angle = 124, self.wingsail.absolute_angle = 3.955078125, self.app_wind_magnitude = 0.0, self.app_wind_angle = 248.4457550048828, self.gps.lat = 29.720425, self.gps.lon = -95.403063333, self.gps.speed = 1.219, self.pitch_angle = 0.0, self.roll_angle = 0.0, self.yaw_angle = 0.0
2024-02-08 20:47:37.734535: self.boat.gps.time='2024-02-08T20:47:36.000Z', self.flap.relative_angle = 124, self.wingsail.absolute_angle = 3.427734375, self.app_wind_magnitude = 0.0, self.app_wind_angle = 248.4457550048828, self.gps.lat = 29.720425, self.gps.lon = -95.403063333, self.gps.speed = 1.219, self.pitch_angle = 0.0, self.roll_angle = 0.0, self.yaw_angle = 0.0
2024-02-08 20:47:37.832879: self.boat.gps.time='2024-02-08T20:47:36.000Z', self.flap.relative_angle = 124, self.wingsail.absolute_angle = 2.98828125, self.app_wind_magnitude = 0.0, self.app_wind_angle = 249.50146484375, self.gps.lat = 29.720425, self.gps.lon = -95.403063333, self.gps.speed = 1.219, self.pitch_angle = 0.0, self.roll_angle = 0.0, self.yaw_angle = 0.0
2024-02-08 20:47:37.929539: self.boat.gps.time='2024-02-08T20:47:36.000Z', self.flap.relative_angle = 124, self.wingsail.absolute_angle = 2.373046875, self.app_wind_magnitude = 0.0, self.app_wind_angle = 248.7976531982422, self.gps.lat = 29.720425, self.gps.lon = -95.403063333, self.gps.speed = 1.219, self.pitch_angle = 0.0, self.roll_angle = 0.0, self.yaw_angle = 0.0
2024-02-08 20:47:38.028255: self.boat.gps.time='2024-02-08T20:47:37.000Z', self.flap.relative_angle = 124, self.wingsail.absolute_angle = 2.63671875, self.app_wind_magnitude = 0.0, self.app_wind_angle = 309.32550048828125, self.gps.lat = 29.72043, self.gps.lon = -95.403048333, self.gps.speed = 1.25, self.pitch_angle = 0.0, self.roll_angle = 0.0, self.yaw_angle = 0.0
2024-02-08 20:47:38.126533: self.boat.gps.time='2024-02-08T20:47:37.000Z', self.flap.relative_angle = 124, self.wingsail.absolute_angle = 2.98828125, self.app_wind_magnitude = 0.0, self.app_wind_angle = 323.4017639160156, self.gps.lat = 29.72043, self.gps.lon = -95.403048333, self.gps.speed = 1.25, self.pitch_angle = 0.0, self.roll_angle = 0.0, self.yaw_angle = 0.0
2024-02-08 20:47:38.224580: self.boat.gps.time='2024-02-08T20:47:37.000Z', self.flap.relative_angle = 124, self.wingsail.absolute_angle = 3.1640625, self.app_wind_magnitude = 0.0, self.app_wind_angle = 325.51318359375, self.gps.lat = 29.72043, self.gps.lon = -95.403048333, self.gps.speed = 1.25, self.pitch_angle = 0.0, self.roll_angle = 0.0, self.yaw_angle = 0.0
2024-02-08 20:47:38.321885: self.boat.gps.time='2024-02-08T20:47:37.000Z', self.flap.relative_angle = 124, self.wingsail.absolute_angle = 3.427734375, self.app_wind_magnitude = 0.0, self.app_wind_angle = 325.1612854003906, self.gps.lat = 29.72043, self.gps.lon = -95.403048333, self.gps.speed = 1.25, self.pitch_angle = 0.0, self.roll_angle = 0.0, self.yaw_angle = 0.0
2024-02-08 20:47:38.420094: self.boat.gps.time='2024-02-08T20:47:37.000Z', self.flap.relative_angle = 124, self.wingsail.absolute_angle = 2.548828125, self.app_wind_magnitude = 0.0, self.app_wind_angle = 324.4574890136719, self.gps.lat = 29.72043, self.gps.lon = -95.403048333, self.gps.speed = 1.25, self.pitch_angle = 0.0, self.roll_angle = 0.0, self.yaw_angle = 0.0
2024-02-08 20:47:38.519504: self.boat.gps.time='2024-02-08T20:47:37.000Z', self.flap.relative_angle = 124, self.wingsail.absolute_angle = 2.4609375, self.app_wind_magnitude = 0.0, self.app_wind_angle = 321.994140625, self.gps.lat = 29.72043, self.gps.lon = -95.403048333, self.gps.speed = 1.25, self.pitch_angle = 0.0, self.roll_angle = 0.0, self.yaw_angle = 0.0
2024-02-08 20:47:38.617765: self.boat.gps.time='2024-02-08T20:47:37.000Z', self.flap.relative_angle = 124, self.wingsail.absolute_angle = 2.28515625, self.app_wind_magnitude = 0.0, self.app_wind_angle = 325.1612854003906, self.gps.lat = 29.72043, self.gps.lon = -95.403048333, self.gps.speed = 1.25, self.pitch_angle = 0.0, self.roll_angle = 0.0, self.yaw_angle = 0.0
2024-02-08 20:47:38.715829: self.boat.gps.time='2024-02-08T20:47:37.000Z', self.flap.relative_angle = 124, self.wingsail.absolute_angle = 1.669921875, self.app_wind_magnitude = 0.0, self.app_wind_angle = 324.80938720703125, self.gps.lat = 29.72043, self.gps.lon = -95.403048333, self.gps.speed = 1.25, self.pitch_angle = 0.0, self.roll_angle = 0.0, self.yaw_angle = 0.0
2024-02-08 20:47:38.813202: self.boat.gps.time='2024-02-08T20:47:37.000Z', self.flap.relative_angle = 124, self.wingsail.absolute_angle = 2.548828125, self.app_wind_magnitude = 0.0, self.app_wind_angle = 31.31964111328125, self.gps.lat = 29.72043, self.gps.lon = -95.403048333, self.gps.speed = 1.25, self.pitch_angle = 0.0, self.roll_angle = 0.0, self.yaw_angle = 0.0
2024-02-08 20:47:38.911421: self.boat.gps.time='2024-02-08T20:47:37.000Z', self.flap.relative_angle = 124, self.wingsail.absolute_angle = 2.109375, self.app_wind_magnitude = 0.0, self.app_wind_angle = 30.967742919921875, self.gps.lat = 29.72043, self.gps.lon = -95.403048333, self.gps.speed = 1.25, self.pitch_angle = 0.0, self.roll_angle = 0.0, self.yaw_angle = 0.0
2024-02-08 20:47:39.009308: self.boat.gps.time='2024-02-08T20:47:37.000Z', self.flap.relative_angle = 124, self.wingsail.absolute_angle = 2.197265625, self.app_wind_magnitude = 0.0, self.app_wind_angle = 30.967742919921875, self.gps.lat = 29.72043, self.gps.lon = -95.403048333, self.gps.speed = 1.25, self.pitch_angle = 0.0, self.roll_angle = 0.0, self.yaw_angle = 0.0
2024-02-08 20:47:39.107481: self.boat.gps.time='2024-02-08T20:47:38.000Z', self.flap.relative_angle = 124, self.wingsail.absolute_angle = 1.23046875, self.app_wind_magnitude = 0.0, self.app_wind_angle = 28.50439453125, self.gps.lat = 29.720435, self.gps.lon = -95.403033333, self.gps.speed = 1.42, self.pitch_angle = 0.0, self.roll_angle = 0.0, self.yaw_angle = 0.0
2024-02-08 20:47:39.205631: self.boat.gps.time='2024-02-08T20:47:38.000Z', self.flap.relative_angle = 124, self.wingsail.absolute_angle = 1.669921875, self.app_wind_magnitude = 0.0, self.app_wind_angle = 30.967742919921875, self.gps.lat = 29.720435, self.gps.lon = -95.403033333, self.gps.speed = 1.42, self.pitch_angle = 0.0, self.roll_angle = 0.0, self.yaw_angle = 0.0
2024-02-08 20:47:39.303747: self.boat.gps.time='2024-02-08T20:47:38.000Z', self.flap.relative_angle = 124, self.wingsail.absolute_angle = 1.142578125, self.app_wind_magnitude = 0.0, self.app_wind_angle = 30.263946533203125, self.gps.lat = 29.720435, self.gps.lon = -95.403033333, self.gps.speed = 1.42, self.pitch_angle = 0.0, self.roll_angle = 0.0, self.yaw_angle = 0.0
2024-02-08 20:47:39.401831: self.boat.gps.time='2024-02-08T20:47:38.000Z', self.flap.relative_angle = 124, self.wingsail.absolute_angle = 1.669921875, self.app_wind_magnitude = 0.0, self.app_wind_angle = 27.80059814453125, self.gps.lat = 29.720435, self.gps.lon = -95.403033333, self.gps.speed = 1.42, self.pitch_angle = 0.0, self.roll_angle = 0.0, self.yaw_angle = 0.0
2024-02-08 20:47:39.499957: self.boat.gps.time='2024-02-08T20:47:38.000Z', self.flap.relative_angle = 124, self.wingsail.absolute_angle = 1.40625, self.app_wind_magnitude = 0.1319648027420044, self.app_wind_angle = 30.967742919921875, self.gps.lat = 29.720435, self.gps.lon = -95.403033333, self.gps.speed = 1.42, self.pitch_angle = 0.0, self.roll_angle = 0.0, self.yaw_angle = 0.0
2024-02-08 20:47:39.598139: self.boat.gps.time='2024-02-08T20:47:38.000Z', self.flap.relative_angle = 124, self.wingsail.absolute_angle = 0.439453125, self.app_wind_magnitude = 0.1319648027420044, self.app_wind_angle = 3.8709716796875, self.gps.lat = 29.720435, self.gps.lon = -95.403033333, self.gps.speed = 1.42, self.pitch_angle = 0.0, self.roll_angle = 0.0, self.yaw_angle = 0.0
2024-02-08 20:47:39.697116: self.boat.gps.time='2024-02-08T20:47:38.000Z', self.flap.relative_angle = 124, self.wingsail.absolute_angle = 0.615234375, self.app_wind_magnitude = 0.1319648027420044, self.app_wind_angle = 6.33428955078125, self.gps.lat = 29.720435, self.gps.lon = -95.403033333, self.gps.speed = 1.42, self.pitch_angle = 0.0, self.roll_angle = 0.0, self.yaw_angle = 0.0
2024-02-08 20:47:39.795275: self.boat.gps.time='2024-02-08T20:47:38.000Z', self.flap.relative_angle = 124, self.wingsail.absolute_angle = 0.439453125, self.app_wind_magnitude = 0.08797653764486313, self.app_wind_angle = 4.222869873046875, self.gps.lat = 29.720435, self.gps.lon = -95.403033333, self.gps.speed = 1.42, self.pitch_angle = 0.0, self.roll_angle = 0.0, self.yaw_angle = 0.0
2024-02-08 20:47:39.893633: self.boat.gps.time='2024-02-08T20:47:38.000Z', self.flap.relative_angle = 124, self.wingsail.absolute_angle = 0.615234375, self.app_wind_magnitude = 0.1319648027420044, self.app_wind_angle = 3.8709716796875, self.gps.lat = 29.720435, self.gps.lon = -95.403033333, self.gps.speed = 1.42, self.pitch_angle = 0.0, self.roll_angle = 0.0, self.yaw_angle = 0.0
2024-02-08 20:47:39.991155: self.boat.gps.time='2024-02-08T20:47:38.000Z', self.flap.relative_angle = 124, self.wingsail.absolute_angle = 0.87890625, self.app_wind_magnitude = 0.1319648027420044, self.app_wind_angle = 3.8709716796875, self.gps.lat = 29.720435, self.gps.lon = -95.403033333, self.gps.speed = 1.42, self.pitch_angle = 0.0, self.roll_angle = 0.0, self.yaw_angle = 0.0
2024-02-08 20:47:40.088515: self.boat.gps.time='2024-02-08T20:47:38.000Z', self.flap.relative_angle = 124, self.wingsail.absolute_angle = 1.318359375, self.app_wind_magnitude = 0.1319648027420044, self.app_wind_angle = 3.167144775390625, self.gps.lat = 29.720435, self.gps.lon = -95.403033333, self.gps.speed = 1.42, self.pitch_angle = 0.0, self.roll_angle = 0.0, self.yaw_angle = 0.0
2024-02-08 20:47:40.187480: self.boat.gps.time='2024-02-08T20:47:39.000Z', self.flap.relative_angle = 124, self.wingsail.absolute_angle = 0.966796875, self.app_wind_magnitude = 0.1319648027420044, self.app_wind_angle = 3.51904296875, self.gps.lat = 29.72044, self.gps.lon = -95.403018333, self.gps.speed = 1.507, self.pitch_angle = 0.0, self.roll_angle = 0.0, self.yaw_angle = 0.0
2024-02-08 20:47:40.285666: self.boat.gps.time='2024-02-08T20:47:39.000Z', self.flap.relative_angle = 124, self.wingsail.absolute_angle = 0.263671875, self.app_wind_magnitude = 0.2639296054840088, self.app_wind_angle = 298.4164123535156, self.gps.lat = 29.72044, self.gps.lon = -95.403018333, self.gps.speed = 1.507, self.pitch_angle = 0.0, self.roll_angle = 0.0, self.yaw_angle = 0.0
2024-02-08 20:47:40.385057: self.boat.gps.time='2024-02-08T20:47:39.000Z', self.flap.relative_angle = 124, self.wingsail.absolute_angle = 0.17578125, self.app_wind_magnitude = 0.3519061505794525, self.app_wind_angle = 298.4164123535156, self.gps.lat = 29.72044, self.gps.lon = -95.403018333, self.gps.speed = 1.507, self.pitch_angle = 0.0, self.roll_angle = 0.0, self.yaw_angle = 0.0
2024-02-08 20:47:40.483352: self.boat.gps.time='2024-02-08T20:47:39.000Z', self.flap.relative_angle = 124, self.wingsail.absolute_angle = 359.912109375, self.app_wind_magnitude = 0.30791789293289185, self.app_wind_angle = 298.768310546875, self.gps.lat = 29.72044, self.gps.lon = -95.403018333, self.gps.speed = 1.507, self.pitch_angle = 0.0, self.roll_angle = 0.0, self.yaw_angle = 0.0
2024-02-08 20:47:40.581684: self.boat.gps.time='2024-02-08T20:47:39.000Z', self.flap.relative_angle = 124, self.wingsail.absolute_angle = 359.296875, self.app_wind_magnitude = 0.30791789293289185, self.app_wind_angle = 298.768310546875, self.gps.lat = 29.72044, self.gps.lon = -95.403018333, self.gps.speed = 1.507, self.pitch_angle = 0.0, self.roll_angle = 0.0, self.yaw_angle = 0.0
2024-02-08 20:47:40.680051: self.boat.gps.time='2024-02-08T20:47:39.000Z', self.flap.relative_angle = 124, self.wingsail.absolute_angle = 359.033203125, self.app_wind_magnitude = 0.3519061505794525, self.app_wind_angle = 298.768310546875, self.gps.lat = 29.72044, self.gps.lon = -95.403018333, self.gps.speed = 1.507, self.pitch_angle = 0.0, self.roll_angle = 0.0, self.yaw_angle = 0.0
2024-02-08 20:47:40.778378: self.boat.gps.time='2024-02-08T20:47:39.000Z', self.flap.relative_angle = 124, self.wingsail.absolute_angle = 358.857421875, self.app_wind_magnitude = 0.3519061505794525, self.app_wind_angle = 298.4164123535156, self.gps.lat = 29.72044, self.gps.lon = -95.403018333, self.gps.speed = 1.507, self.pitch_angle = 0.0, self.roll_angle = 0.0, self.yaw_angle = 0.0
2024-02-08 20:47:40.875890: self.boat.gps.time='2024-02-08T20:47:39.000Z', self.flap.relative_angle = 124, self.wingsail.absolute_angle = 358.505859375, self.app_wind_magnitude = 0.3519061505794525, self.app_wind_angle = 298.768310546875, self.gps.lat = 29.72044, self.gps.lon = -95.403018333, self.gps.speed = 1.507, self.pitch_angle = 0.0, self.roll_angle = 0.0, self.yaw_angle = 0.0
2024-02-08 20:47:40.973769: self.boat.gps.time='2024-02-08T20:47:39.000Z', self.flap.relative_angle = 124, self.wingsail.absolute_angle = 358.330078125, self.app_wind_magnitude = 0.30791789293289185, self.app_wind_angle = 313.9002990722656, self.gps.lat = 29.72044, self.gps.lon = -95.403018333, self.gps.speed = 1.507, self.pitch_angle = 0.0, self.roll_angle = 0.0, self.yaw_angle = 0.0
2024-02-08 20:47:41.072030: self.boat.gps.time='2024-02-08T20:47:39.000Z', self.flap.relative_angle = 124, self.wingsail.absolute_angle = 357.36328125, self.app_wind_magnitude = 0.30791789293289185, self.app_wind_angle = 313.9002990722656, self.gps.lat = 29.72044, self.gps.lon = -95.403018333, self.gps.speed = 1.507, self.pitch_angle = 0.0, self.roll_angle = 0.0, self.yaw_angle = 0.0
2024-02-08 20:47:41.170306: self.boat.gps.time='2024-02-08T20:47:39.000Z', self.flap.relative_angle = 124, self.wingsail.absolute_angle = 356.484375, self.app_wind_magnitude = 0.2639296054840088, self.app_wind_angle = 314.252197265625, self.gps.lat = 29.72044, self.gps.lon = -95.403018333, self.gps.speed = 1.507, self.pitch_angle = 0.0, self.roll_angle = 0.0, self.yaw_angle = 0.0
2024-02-08 20:47:41.269462: self.boat.gps.time='2024-02-08T20:47:40.000Z', self.flap.relative_angle = 124, self.wingsail.absolute_angle = 356.30859375, self.app_wind_magnitude = 0.4838709533214569, self.app_wind_angle = 314.6040954589844, self.gps.lat = 29.720445, self.gps.lon = -95.403001667, self.gps.speed = 1.6, self.pitch_angle = 0.0, self.roll_angle = 0.0, self.yaw_angle = 0.0
2024-02-08 20:47:41.367835: self.boat.gps.time='2024-02-08T20:47:40.000Z', self.flap.relative_angle = 124, self.wingsail.absolute_angle = 356.572265625, self.app_wind_magnitude = 0.5278592109680176, self.app_wind_angle = 313.9002990722656, self.gps.lat = 29.720445, self.gps.lon = -95.403001667, self.gps.speed = 1.6, self.pitch_angle = 0.0, self.roll_angle = 0.0, self.yaw_angle = 0.0
2024-02-08 20:47:41.466179: self.boat.gps.time='2024-02-08T20:47:40.000Z', self.flap.relative_angle = 124, self.wingsail.absolute_angle = 356.396484375, self.app_wind_magnitude = 0.5718474984169006, self.app_wind_angle = 313.9002990722656, self.gps.lat = 29.720445, self.gps.lon = -95.403001667, self.gps.speed = 1.6, self.pitch_angle = 0.0, self.roll_angle = 0.0, self.yaw_angle = 0.0
2024-02-08 20:47:41.564365: self.boat.gps.time='2024-02-08T20:47:40.000Z', self.flap.relative_angle = 124, self.wingsail.absolute_angle = 355.60546875, self.app_wind_magnitude = 0.5278592109680176, self.app_wind_angle = 315.6598205566406, self.gps.lat = 29.720445, self.gps.lon = -95.403001667, self.gps.speed = 1.6, self.pitch_angle = 0.0, self.roll_angle = 0.0, self.yaw_angle = 0.0
2024-02-08 20:47:41.662717: self.boat.gps.time='2024-02-08T20:47:40.000Z', self.flap.relative_angle = 124, self.wingsail.absolute_angle = 355.517578125, self.app_wind_magnitude = 0.5278592109680176, self.app_wind_angle = 313.54840087890625, self.gps.lat = 29.720445, self.gps.lon = -95.403001667, self.gps.speed = 1.6, self.pitch_angle = 0.0, self.roll_angle = 0.0, self.yaw_angle = 0.0
2024-02-08 20:47:41.759149: self.boat.gps.time='2024-02-08T20:47:40.000Z', self.flap.relative_angle = 124, self.wingsail.absolute_angle = 354.990234375, self.app_wind_magnitude = 0.4838709533214569, self.app_wind_angle = 3.51904296875, self.gps.lat = 29.720445, self.gps.lon = -95.403001667, self.gps.speed = 1.6, self.pitch_angle = 0.0, self.roll_angle = 0.0, self.yaw_angle = 0.0
2024-02-08 20:47:41.857383: self.boat.gps.time='2024-02-08T20:47:40.000Z', self.flap.relative_angle = 124, self.wingsail.absolute_angle = 354.638671875, self.app_wind_magnitude = 0.4838709533214569, self.app_wind_angle = 3.51904296875, self.gps.lat = 29.720445, self.gps.lon = -95.403001667, self.gps.speed = 1.6, self.pitch_angle = 0.0, self.roll_angle = 0.0, self.yaw_angle = 0.0
2024-02-08 20:47:41.955639: self.boat.gps.time='2024-02-08T20:47:40.000Z', self.flap.relative_angle = 124, self.wingsail.absolute_angle = 354.814453125, self.app_wind_magnitude = 0.4838709533214569, self.app_wind_angle = 3.167144775390625, self.gps.lat = 29.720445, self.gps.lon = -95.403001667, self.gps.speed = 1.6, self.pitch_angle = 0.0, self.roll_angle = 0.0, self.yaw_angle = 0.0
2024-02-08 20:47:42.053904: self.boat.gps.time='2024-02-08T20:47:40.000Z', self.flap.relative_angle = 124, self.wingsail.absolute_angle = 354.375, self.app_wind_magnitude = 0.4838709533214569, self.app_wind_angle = 3.167144775390625, self.gps.lat = 29.720445, self.gps.lon = -95.403001667, self.gps.speed = 1.6, self.pitch_angle = 0.0, self.roll_angle = 0.0, self.yaw_angle = 0.0
2024-02-08 20:47:42.151623: self.boat.gps.time='2024-02-08T20:47:40.000Z', self.flap.relative_angle = 124, self.wingsail.absolute_angle = 354.7265625, self.app_wind_magnitude = 0.1319648027420044, self.app_wind_angle = 3.51904296875, self.gps.lat = 29.720445, self.gps.lon = -95.403001667, self.gps.speed = 1.6, self.pitch_angle = 0.0, self.roll_angle = 0.0, self.yaw_angle = 0.0
2024-02-08 20:47:42.249906: self.boat.gps.time='2024-02-08T20:47:40.000Z', self.flap.relative_angle = 124, self.wingsail.absolute_angle = 354.19921875, self.app_wind_magnitude = 0.1319648027420044, self.app_wind_angle = 3.51904296875, self.gps.lat = 29.720445, self.gps.lon = -95.403001667, self.gps.speed = 1.6, self.pitch_angle = 0.0, self.roll_angle = 0.0, self.yaw_angle = 0.0
2024-02-08 20:47:42.346801: self.boat.gps.time='2024-02-08T20:47:41.000Z', self.flap.relative_angle = 124, self.wingsail.absolute_angle = 353.3203125, self.app_wind_magnitude = 0.1319648027420044, self.app_wind_angle = 3.167144775390625, self.gps.lat = 29.72045, self.gps.lon = -95.402985, self.gps.speed = 1.569, self.pitch_angle = 0.0, self.roll_angle = 0.0, self.yaw_angle = 0.0
2024-02-08 20:47:42.445056: self.boat.gps.time='2024-02-08T20:47:41.000Z', self.flap.relative_angle = 124, self.wingsail.absolute_angle = 352.177734375, self.app_wind_magnitude = 0.1319648027420044, self.app_wind_angle = 7.741943359375, self.gps.lat = 29.72045, self.gps.lon = -95.402985, self.gps.speed = 1.569, self.pitch_angle = 0.0, self.roll_angle = 0.0, self.yaw_angle = 0.0
2024-02-08 20:47:42.542968: self.boat.gps.time='2024-02-08T20:47:41.000Z', self.flap.relative_angle = 124, self.wingsail.absolute_angle = 352.353515625, self.app_wind_magnitude = 0.17595307528972626, self.app_wind_angle = 7.038116455078125, self.gps.lat = 29.72045, self.gps.lon = -95.402985, self.gps.speed = 1.569, self.pitch_angle = 0.0, self.roll_angle = 0.0, self.yaw_angle = 0.0
2024-02-08 20:47:42.641316: self.boat.gps.time='2024-02-08T20:47:41.000Z', self.flap.relative_angle = 124, self.wingsail.absolute_angle = 352.705078125, self.app_wind_magnitude = 0.1319648027420044, self.app_wind_angle = 5.982391357421875, self.gps.lat = 29.72045, self.gps.lon = -95.402985, self.gps.speed = 1.569, self.pitch_angle = 0.0, self.roll_angle = 0.0, self.yaw_angle = 0.0
2024-02-08 20:47:42.739904: self.boat.gps.time='2024-02-08T20:47:41.000Z', self.flap.relative_angle = 124, self.wingsail.absolute_angle = 352.353515625, self.app_wind_magnitude = 0.1319648027420044, self.app_wind_angle = 7.741943359375, self.gps.lat = 29.72045, self.gps.lon = -95.402985, self.gps.speed = 1.569, self.pitch_angle = 0.0, self.roll_angle = 0.0, self.yaw_angle = 0.0
2024-02-08 20:47:42.834928: self.boat.gps.time='2024-02-08T20:47:41.000Z', self.flap.relative_angle = 124, self.wingsail.absolute_angle = 352.08984375, self.app_wind_magnitude = 0.1319648027420044, self.app_wind_angle = 8.093841552734375, self.gps.lat = 29.72045, self.gps.lon = -95.402985, self.gps.speed = 1.569, self.pitch_angle = 0.0, self.roll_angle = 0.0, self.yaw_angle = 0.0
2024-02-08 20:47:42.929753: self.boat.gps.time='2024-02-08T20:47:41.000Z', self.flap.relative_angle = 124, self.wingsail.absolute_angle = 351.650390625, self.app_wind_magnitude = 0.1319648027420044, self.app_wind_angle = 4.57476806640625, self.gps.lat = 29.72045, self.gps.lon = -95.402985, self.gps.speed = 1.569, self.pitch_angle = 0.0, self.roll_angle = 0.0, self.yaw_angle = 0.0
2024-02-08 20:47:43.027933: self.boat.gps.time='2024-02-08T20:47:41.000Z', self.flap.relative_angle = 124, self.wingsail.absolute_angle = 350.68359375, self.app_wind_magnitude = 0.1319648027420044, self.app_wind_angle = 7.741943359375, self.gps.lat = 29.72045, self.gps.lon = -95.402985, self.gps.speed = 1.569, self.pitch_angle = 0.0, self.roll_angle = 0.0, self.yaw_angle = 0.0
2024-02-08 20:47:43.126278: self.boat.gps.time='2024-02-08T20:47:41.000Z', self.flap.relative_angle = 124, self.wingsail.absolute_angle = 349.892578125, self.app_wind_magnitude = 0.17595307528972626, self.app_wind_angle = 235.07330322265625, self.gps.lat = 29.72045, self.gps.lon = -95.402985, self.gps.speed = 1.569, self.pitch_angle = 0.0, self.roll_angle = 0.0, self.yaw_angle = 0.0
2024-02-08 20:47:43.224464: self.boat.gps.time='2024-02-08T20:47:41.000Z', self.flap.relative_angle = 124, self.wingsail.absolute_angle = 350.947265625, self.app_wind_magnitude = 0.1319648027420044, self.app_wind_angle = 334.6627502441406, self.gps.lat = 29.72045, self.gps.lon = -95.402985, self.gps.speed = 1.569, self.pitch_angle = 0.0, self.roll_angle = 0.0, self.yaw_angle = 0.0
2024-02-08 20:47:43.322824: self.boat.gps.time='2024-02-08T20:47:41.000Z', self.flap.relative_angle = 124, self.wingsail.absolute_angle = 350.33203125, self.app_wind_magnitude = 0.1319648027420044, self.app_wind_angle = 333.255126953125, self.gps.lat = 29.72045, self.gps.lon = -95.402985, self.gps.speed = 1.569, self.pitch_angle = 0.0, self.roll_angle = 0.0, self.yaw_angle = 0.0
2024-02-08 20:47:43.421813: self.boat.gps.time='2024-02-08T20:47:42.000Z', self.flap.relative_angle = 124, self.wingsail.absolute_angle = 350.15625, self.app_wind_magnitude = 0.1319648027420044, self.app_wind_angle = 335.7184753417969, self.gps.lat = 29.720455, self.gps.lon = -95.402968333, self.gps.speed = 1.554, self.pitch_angle = 0.0, self.roll_angle = 0.0, self.yaw_angle = 0.0
2024-02-08 20:47:43.520117: self.boat.gps.time='2024-02-08T20:47:42.000Z', self.flap.relative_angle = 124, self.wingsail.absolute_angle = 349.1015625, self.app_wind_magnitude = 0.1319648027420044, self.app_wind_angle = 333.6070556640625, self.gps.lat = 29.720455, self.gps.lon = -95.402968333, self.gps.speed = 1.554, self.pitch_angle = 0.0, self.roll_angle = 0.0, self.yaw_angle = 0.0
2024-02-08 20:47:43.618441: self.boat.gps.time='2024-02-08T20:47:42.000Z', self.flap.relative_angle = 124, self.wingsail.absolute_angle = 349.8046875, self.app_wind_magnitude = 0.1319648027420044, self.app_wind_angle = 332.9032287597656, self.gps.lat = 29.720455, self.gps.lon = -95.402968333, self.gps.speed = 1.554, self.pitch_angle = 0.0, self.roll_angle = 0.0, self.yaw_angle = 0.0
2024-02-08 20:47:43.713663: self.boat.gps.time='2024-02-08T20:47:42.000Z', self.flap.relative_angle = 124, self.wingsail.absolute_angle = 349.013671875, self.app_wind_magnitude = 0.1319648027420044, self.app_wind_angle = 335.0146484375, self.gps.lat = 29.720455, self.gps.lon = -95.402968333, self.gps.speed = 1.554, self.pitch_angle = 0.0, self.roll_angle = 0.0, self.yaw_angle = 0.0
2024-02-08 20:47:43.811916: self.boat.gps.time='2024-02-08T20:47:42.000Z', self.flap.relative_angle = 124, self.wingsail.absolute_angle = 349.892578125, self.app_wind_magnitude = 0.08797653764486313, self.app_wind_angle = 332.55133056640625, self.gps.lat = 29.720455, self.gps.lon = -95.402968333, self.gps.speed = 1.554, self.pitch_angle = 0.0, self.roll_angle = 0.0, self.yaw_angle = 0.0
2024-02-08 20:47:43.910208: self.boat.gps.time='2024-02-08T20:47:42.000Z', self.flap.relative_angle = 124, self.wingsail.absolute_angle = 349.8046875, self.app_wind_magnitude = 0.1319648027420044, self.app_wind_angle = 293.48974609375, self.gps.lat = 29.720455, self.gps.lon = -95.402968333, self.gps.speed = 1.554, self.pitch_angle = 0.0, self.roll_angle = 0.0, self.yaw_angle = 0.0
2024-02-08 20:47:44.009651: self.boat.gps.time='2024-02-08T20:47:42.000Z', self.flap.relative_angle = 124, self.wingsail.absolute_angle = 349.62890625, self.app_wind_magnitude = 0.1319648027420044, self.app_wind_angle = 293.1378173828125, self.gps.lat = 29.720455, self.gps.lon = -95.402968333, self.gps.speed = 1.554, self.pitch_angle = 0.0, self.roll_angle = 0.0, self.yaw_angle = 0.0
2024-02-08 20:47:44.107766: self.boat.gps.time='2024-02-08T20:47:42.000Z', self.flap.relative_angle = 124, self.wingsail.absolute_angle = 349.1015625, self.app_wind_magnitude = 0.1319648027420044, self.app_wind_angle = 293.1378173828125, self.gps.lat = 29.720455, self.gps.lon = -95.402968333, self.gps.speed = 1.554, self.pitch_angle = 0.0, self.roll_angle = 0.0, self.yaw_angle = 0.0
2024-02-08 20:47:44.205229: self.boat.gps.time='2024-02-08T20:47:42.000Z', self.flap.relative_angle = 124, self.wingsail.absolute_angle = 348.75, self.app_wind_magnitude = 0.1319648027420044, self.app_wind_angle = 293.48974609375, self.gps.lat = 29.720455, self.gps.lon = -95.402968333, self.gps.speed = 1.554, self.pitch_angle = 0.0, self.roll_angle = 0.0, self.yaw_angle = 0.0
2024-02-08 20:47:44.303489: self.boat.gps.time='2024-02-08T20:47:42.000Z', self.flap.relative_angle = 124, self.wingsail.absolute_angle = 348.92578125, self.app_wind_magnitude = 0.1319648027420044, self.app_wind_angle = 292.7859191894531, self.gps.lat = 29.720455, self.gps.lon = -95.402968333, self.gps.speed = 1.554, self.pitch_angle = 0.0, self.roll_angle = 0.0, self.yaw_angle = 0.0
2024-02-08 20:47:44.401740: self.boat.gps.time='2024-02-08T20:47:42.000Z', self.flap.relative_angle = 124, self.wingsail.absolute_angle = 348.662109375, self.app_wind_magnitude = 0.1319648027420044, self.app_wind_angle = 293.1378173828125, self.gps.lat = 29.720455, self.gps.lon = -95.402968333, self.gps.speed = 1.554, self.pitch_angle = 0.0, self.roll_angle = 0.0, self.yaw_angle = 0.0
2024-02-08 20:47:44.501493: self.boat.gps.time='2024-02-08T20:47:43.000Z', self.flap.relative_angle = 124, self.wingsail.absolute_angle = 349.1015625, self.app_wind_magnitude = 0.1319648027420044, self.app_wind_angle = 292.7859191894531, self.gps.lat = 29.720461667, self.gps.lon = -95.402951667, self.gps.speed = 1.518, self.pitch_angle = 0.0, self.roll_angle = 0.0, self.yaw_angle = 0.0
2024-02-08 20:47:44.599762: self.boat.gps.time='2024-02-08T20:47:43.000Z', self.flap.relative_angle = 124, self.wingsail.absolute_angle = 348.3984375, self.app_wind_magnitude = 0.1319648027420044, self.app_wind_angle = 293.1378173828125, self.gps.lat = 29.720461667, self.gps.lon = -95.402951667, self.gps.speed = 1.518, self.pitch_angle = 0.0, self.roll_angle = 0.0, self.yaw_angle = 0.0
2024-02-08 20:47:44.697988: self.boat.gps.time='2024-02-08T20:47:43.000Z', self.flap.relative_angle = 124, self.wingsail.absolute_angle = 348.662109375, self.app_wind_magnitude = 0.1319648027420044, self.app_wind_angle = 291.730224609375, self.gps.lat = 29.720461667, self.gps.lon = -95.402951667, self.gps.speed = 1.518, self.pitch_angle = 0.0, self.roll_angle = 0.0, self.yaw_angle = 0.0
2024-02-08 20:47:44.796342: self.boat.gps.time='2024-02-08T20:47:43.000Z', self.flap.relative_angle = 124, self.wingsail.absolute_angle = 348.662109375, self.app_wind_magnitude = 0.1319648027420044, self.app_wind_angle = 292.43402099609375, self.gps.lat = 29.720461667, self.gps.lon = -95.402951667, self.gps.speed = 1.518, self.pitch_angle = 0.0, self.roll_angle = 0.0, self.yaw_angle = 0.0
